code,name,regioFacet,level,url,name_norm,centroid_geom,centroid_lon,centroid_lat,municipality_final_v8,province_final_v8,midwest_subregion_v8,water_count,bad_entry_count,high_conf_count,night_allowed_count,night_restricted_count,night_not_allowed_count,shelter_allowed_count,shelter_restricted_count,shelter_not_allowed_count,third_rod_allowed_count,third_rod_restricted_count,third_rod_not_allowed_count,pc4_count,authority_count,species_hint,midwest_focus_v8,mapbox_feature_id_v8,map_title_v8,map_subtitle_v8,layer_type_v8
1680,Aa en Hunze,tcm:106-353398-1024,4,/regioinformatie/gemeente/aa-en-hunze/,aa en hunze,POINT (6.72720522460235 52.99297691599918),6.72720522460235,52.99297691599918,,,,0,0,0,0,0,0,0,0,0,0,0,0,0,0,,False,municipality::aa-en-hunze,Aa en Hunze,,municipality_polygon
0106,Assen,tcm:106-353399-1024,4,/regioinformatie/gemeente/assen/,assen,POINT (6.552429621341344 53.00124177960116),6.552429621341344,53.00124177960116,,,,0,0,0,0,0,0,0,0,0,0,0,0,0,0,,False,municipality::assen,Assen,,municipality_polygon
1681,Borger-Odoorn,tcm:106-353400-1024,4,/regioinformatie/gemeente/borger-odoorn/,borger odoorn,POINT (6.871985299673028 52.90579818645854),6.871985299673028,52.90579818645854,,,,0,0,0,0,0,0,0,0,0,0,0,0,0,0,,False,municipality::borger-odoorn,Borger-Odoorn,,municipality_polygon
0109,Coevorden,tcm:106-353401-1024,4,/regioinformatie/gemeente/coevorden/,coevorden,POINT (6.736013730668777 52.74019722388725),6.736013730668777,52.74019722388725,,,,0,0,0,0,0,0,0,0,0,0,0,0,0,0,,False,municipality::coevorden,Coevorden,,municipality_polygon
1690,De Wolden,tcm:106-353402-1024,4,/regioinformatie/gemeente/de-wolden/,de wolden,POINT (6.373528235151682 52.7016432405306),6.373528235151682,52.7016432405306,,,,0,0,0,0,0,0,0,0,0,0,0,0,0,0,,False,municipality::de-wolden,De Wolden,,municipality_polygon
0114,Emmen,tcm:106-353403-1024,4,/regioinformatie/gemeente/emmen/,emmen,POINT (6.961848708586013 52.74957923775245),6.961848708586013,52.74957923775245,,,,0,0,0,0,0,0,0,0,0,0,0,0,0,0,,False,municipality::emmen,Emmen,,municipality_polygon
0118,Hoogeveen,tcm:106-353404-1024,4,/regioinformatie/gemeente/hoogeveen/,hoogeveen,POINT (6.513712440402905 52.72300278891475),6.513712440402905,52.72300278891475,,,,0,0,0,0,0,0,0,0,0,0,0,0,0,0,,False,municipality::hoogeveen,Hoogeveen,,municipality_polygon
0119,Meppel,tcm:106-353405-1024,4,/regioinformatie/gemeente/meppel/,meppel,POINT (6.194097617725413 52.71573146214826),6.194097617725413,52.71573146214826,Meppel,Drenthe,,24,0,24,0,0,0,0,0,0,0,0,0,2,6,Roofvis | Onbekend,False,municipality::meppel,Meppel,Drenthe,municipality_polygon
1731,Midden-Drenthe,tcm:106-353406-1024,4,/regioinformatie/gemeente/midden-drenthe/,midden drenthe,POINT (6.542755282445854 52.86726165510744),6.542755282445854,52.86726165510744,,,,0,0,0,0,0,0,0,0,0,0,0,0,0,0,,False,municipality::midden-drenthe,Midden-Drenthe,,municipality_polygon
1699,Noordenveld,tcm:106-353407-1024,4,/regioinformatie/gemeente/noordenveld/,noordenveld,POINT (6.440319980949793 53.09568819154511),6.440319980949793,53.09568819154511,,,,0,0,0,0,0,0,0,0,0,0,0,0,0,0,,False,municipality::noordenveld,Noordenveld,,municipality_polygon
1730,Tynaarlo,tcm:106-353408-1024,4,/regioinformatie/gemeente/tynaarlo/,tynaarlo,POINT (6.604273575389708 53.09706778245162),6.604273575389708,53.09706778245162,,,,0,0,0,0,0,0,0,0,0,0,0,0,0,0,,False,municipality::tynaarlo,Tynaarlo,,municipality_polygon
1701,Westerveld,tcm:106-353409-1024,4,/regioinformatie/gemeente/westerveld/,westerveld,POINT (6.295488843715779 52.838148773581004),6.295488843715779,52.838148773581004,,,,0,0,0,0,0,0,0,0,0,0,0,0,0,0,,False,municipality::westerveld,Westerveld,,municipality_polygon
0034,Almere,tcm:106-353411-1024,4,/regioinformatie/gemeente/almere/,almere,POINT (5.205503988238092 52.40237947246638),5.205503988238092,52.40237947246638,,,midwest-oost,0,0,0,0,0,0,0,0,0,0,0,0,0,0,,True,municipality::almere,Almere,,municipality_polygon
0303,Dronten,tcm:106-353412-1024,4,/regioinformatie/gemeente/dronten/,dronten,POINT (5.695408357804599 52.510089299897736),5.695408357804599,52.510089299897736,,,midwest-oost,0,0,0,0,0,0,0,0,0,0,0,0,0,0,,True,municipality::dronten,Dronten,,municipality_polygon
0995,Lelystad,tcm:106-353413-1024,4,/regioinformatie/gemeente/lelystad/,lelystad,POINT (5.374786067647775 52.542604037876515),5.374786067647775,52.542604037876515,,,midwest-oost,0,0,0,0,0,0,0,0,0,0,0,0,0,0,,True,municipality::lelystad,Lelystad,,municipality_polygon
0171,Noordoostpolder,tcm:106-353414-1024,4,/regioinformatie/gemeente/noordoostpolder/,noordoostpolder,POINT (5.729378865448611 52.715799909227684),5.729378865448611,52.715799909227684,Noordoostpolder,Flevoland,,79,0,79,0,0,0,0,0,0,0,0,0,1,2,Onbekend | Roofvis | Karper,False,municipality::noordoostpolder,Noordoostpolder,Flevoland,municipality_polygon
0184,Urk,tcm:106-353415-1024,4,/regioinformatie/gemeente/urk/,urk,POINT (5.4786644170238405 52.6939415887529),5.4786644170238405,52.6939415887529,,,,0,0,0,0,0,0,0,0,0,0,0,0,0,0,,False,municipality::urk,Urk,,municipality_polygon
0050,Zeewolde,tcm:106-353416-1024,4,/regioinformatie/gemeente/zeewolde/,zeewolde,POINT (5.455042605812987 52.34443924728947),5.455042605812987,52.34443924728947,Zeewolde,Flevoland,midwest-oost,3,0,3,0,0,0,0,0,0,0,0,0,0,1,Onbekend,True,municipality::zeewolde,Zeewolde,Flevoland,municipality_polygon
0059,Achtkarspelen,tcm:106-353418-1024,4,/regioinformatie/gemeente/achtkarspelen/,achtkarspelen,POINT (6.143154000343055 53.21677726132737),6.143154000343055,53.21677726132737,,,,0,0,0,0,0,0,0,0,0,0,0,0,0,0,,False,municipality::achtkarspelen,Achtkarspelen,,municipality_polygon
0060,Ameland,tcm:106-353419-1024,4,/regioinformatie/gemeente/ameland/,ameland,POINT (5.761373230929707 53.430729683356375),5.761373230929707,53.430729683356375,,,,0,0,0,0,0,0,0,0,0,0,0,0,0,0,,False,municipality::ameland,Ameland,,municipality_polygon
1891,Dantumadeel (Dantumadiel),tcm:106-353421-1024,4,/regioinformatie/gemeente/dantumadiel/,dantumadeel,POINT (5.984354358134082 53.28003831502457),5.984354358134082,53.28003831502457,,,,0,0,0,0,0,0,0,0,0,0,0,0,0,0,,False,municipality::dantumadeel,Dantumadeel (Dantumadiel),,municipality_polygon
1921,De Friese Meren,tcm:106-401747-1024,4,/regioinformatie/gemeente/de-friese-meren/,de friese meren,POINT (5.670821358391048 52.892031184244566),5.670821358391048,52.892031184244566,,,,0,0,0,0,0,0,0,0,0,0,0,0,0,0,,False,municipality::de-friese-meren,De Friese Meren,,municipality_polygon
0058,Dongeradeel,tcm:106-353422-1024,4,/regioinformatie/gemeente/dongeradeel/,dongeradeel,POINT (6.027529429308322 53.38302206226028),6.027529429308322,53.38302206226028,,,,0,0,0,0,0,0,0,0,0,0,0,0,0,0,,False,municipality::dongeradeel,Dongeradeel,,municipality_polygon
1722,Ferwerderadeel (Ferwerderadiel),tcm:106-353423-1024,4,/regioinformatie/gemeente/ferwerderadiel/,ferwerderadeel,POINT (5.80938271533025 53.33497545975421),5.80938271533025,53.33497545975421,,,,0,0,0,0,0,0,0,0,0,0,0,0,0,0,,False,municipality::ferwerderadeel,Ferwerderadeel (Ferwerderadiel),,municipality_polygon
0070,Franekeradeel,tcm:106-353424-1024,4,/regioinformatie/gemeente/franekeradeel/,franekeradeel,POINT (5.534155612069311 53.19837375878094),5.534155612069311,53.19837375878094,,,,0,0,0,0,0,0,0,0,0,0,0,0,0,0,,False,municipality::franekeradeel,Franekeradeel,,municipality_polygon
0072,Harlingen,tcm:106-353426-1024,4,/regioinformatie/gemeente/harlingen/,harlingen,POINT (5.26764845155419 53.14308923051905),5.26764845155419,53.14308923051905,,,,0,0,0,0,0,0,0,0,0,0,0,0,0,0,,False,municipality::harlingen,Harlingen,,municipality_polygon
0074,Heerenveen,tcm:106-353427-1024,4,/regioinformatie/gemeente/heerenveen/,heerenveen,POINT (5.977771917036106 52.99605803555082),5.977771917036106,52.99605803555082,,,,0,0,0,0,0,0,0,0,0,0,0,0,0,0,,False,municipality::heerenveen,Heerenveen,,municipality_polygon
0063,het Bildt,tcm:106-353428-1024,4,/regioinformatie/gemeente/het-bildt/,het bildt,POINT (5.649599164263177 53.28884099858841),5.649599164263177,53.28884099858841,,,,0,0,0,0,0,0,0,0,0,0,0,0,0,0,,False,municipality::het-bildt,het Bildt,,municipality_polygon
0079,Kollumerland en Nieuwkruisland,tcm:106-353429-1024,4,/regioinformatie/gemeente/kollumerland-ca/,kollumerland en nieuwkruisland,POINT (6.173536632835054 53.2998558071556),6.173536632835054,53.2998558071556,,,,0,0,0,0,0,0,0,0,0,0,0,0,0,0,,False,municipality::kollumerland-en-nieuwkruisland,Kollumerland en Nieuwkruisland,,municipality_polygon
0080,Leeuwarden,tcm:106-353430-1024,4,/regioinformatie/gemeente/leeuwarden/,leeuwarden,POINT (5.826305845649692 53.153770731082766),5.826305845649692,53.153770731082766,,,,0,0,0,0,0,0,0,0,0,0,0,0,0,0,,False,municipality::leeuwarden,Leeuwarden,,municipality_polygon
0081,Leeuwarderadeel,tcm:106-353431-1024,4,/regioinformatie/gemeente/leeuwarderadeel/,leeuwarderadeel,POINT (5.779322481152933 53.260753431166656),5.779322481152933,53.260753431166656,,,,0,0,0,0,0,0,0,0,0,0,0,0,0,0,,False,municipality::leeuwarderadeel,Leeuwarderadeel,,municipality_polygon
0140,Littenseradeel (Littenseradiel),tcm:106-353433-1024,4,/regioinformatie/gemeente/littenseradiel/,littenseradeel,POINT (5.655271738511111 53.12516739178921),5.655271738511111,53.12516739178921,,,,0,0,0,0,0,0,0,0,0,0,0,0,0,0,,False,municipality::littenseradeel,Littenseradeel (Littenseradiel),,municipality_polygon
1908,Menaldumadeel (Menaldumadiel),tcm:106-353434-1024,4,/regioinformatie/gemeente/menameradiel/,menaldumadeel,POINT (5.674031037655236 53.20930855557723),5.674031037655236,53.20930855557723,,,,0,0,0,0,0,0,0,0,0,0,0,0,0,0,,False,municipality::menaldumadeel,Menaldumadeel (Menaldumadiel),,municipality_polygon
0085,Ooststellingwerf,tcm:106-353435-1024,4,/regioinformatie/gemeente/ooststellingwerf/,ooststellingwerf,POINT (6.282771129995019 52.98244303984229),6.282771129995019,52.98244303984229,,,,0,0,0,0,0,0,0,0,0,0,0,0,0,0,,False,municipality::ooststellingwerf,Ooststellingwerf,,municipality_polygon
0086,Opsterland,tcm:106-353436-1024,4,/regioinformatie/gemeente/opsterland/,opsterland,POINT (6.112780371674541 53.04907002008171),6.112780371674541,53.04907002008171,,,,0,0,0,0,0,0,0,0,0,0,0,0,0,0,,False,municipality::opsterland,Opsterland,,municipality_polygon
0088,Schiermonnikoog,tcm:106-353438-1024,4,/regioinformatie/gemeente/schiermonnikoog/,schiermonnikoog,POINT (6.218232624745355 53.47368260957298),6.218232624745355,53.47368260957298,,,,0,0,0,0,0,0,0,0,0,0,0,0,0,0,,False,municipality::schiermonnikoog,Schiermonnikoog,,municipality_polygon
0090,Smallingerland,tcm:106-353439-1024,4,/regioinformatie/gemeente/smallingerland/,smallingerland,POINT (6.0388504106344465 53.11334524077848),6.0388504106344465,53.11334524077848,Smallingerland,Friesland (Fryslân),,57,0,57,0,0,0,0,0,0,0,0,0,5,1,Onbekend | Roofvis,False,municipality::smallingerland,Smallingerland,Friesland (Fryslân),municipality_polygon
1900,Súdwest-Fryslân,tcm:106-353440-1024,4,/regioinformatie/gemeente/sudwest-fryslan/,sudwest fryslan,POINT (5.44696230634557 52.98914616111236),5.44696230634557,52.98914616111236,,,,0,0,0,0,0,0,0,0,0,0,0,0,0,0,,False,municipality::sudwest-fryslan,Súdwest-Fryslân,,municipality_polygon
0093,Terschelling,tcm:106-353441-1024,4,/regioinformatie/gemeente/terschelling/,terschelling,POINT (5.374759104309278 53.33984798575808),5.374759104309278,53.33984798575808,,,,0,0,0,0,0,0,0,0,0,0,0,0,0,0,,False,municipality::terschelling,Terschelling,,municipality_polygon
0737,Tietjerksteradeel (Tytsjerksteradiel),tcm:106-353442-1024,4,/regioinformatie/gemeente/tytsjerksteradiel/,tietjerksteradeel,POINT (5.962730849745117 53.19982207999134),5.962730849745117,53.19982207999134,,,,0,0,0,0,0,0,0,0,0,0,0,0,0,0,,False,municipality::tietjerksteradeel,Tietjerksteradeel (Tytsjerksteradiel),,municipality_polygon
0096,Vlieland,tcm:106-353443-1024,4,/regioinformatie/gemeente/vlieland/,vlieland,POINT (5.034634042598645 53.219682542996445),5.034634042598645,53.219682542996445,,,,0,0,0,0,0,0,0,0,0,0,0,0,0,0,,False,municipality::vlieland,Vlieland,,municipality_polygon
0098,Weststellingwerf,tcm:106-353444-1024,4,/regioinformatie/gemeente/weststellingwerf/,weststellingwerf,POINT (6.017753591661924 52.875783569195725),6.017753591661924,52.875783569195725,Weststellingwerf,Friesland (Fryslân),,3,0,3,0,0,0,0,0,0,0,0,0,0,1,Onbekend,False,municipality::weststellingwerf,Weststellingwerf,Friesland (Fryslân),municipality_polygon
0197,Aalten,tcm:106-353446-1024,4,/regioinformatie/gemeente/aalten/,aalten,POINT (6.560295373972197 51.921726195210226),6.560295373972197,51.921726195210226,,,,0,0,0,0,0,0,0,0,0,0,0,0,0,0,,False,municipality::aalten,Aalten,,municipality_polygon
0200,Apeldoorn,tcm:106-353447-1024,4,/regioinformatie/gemeente/apeldoorn/,apeldoorn,POINT (5.921753772765174 52.18981477006807),5.921753772765174,52.18981477006807,,,,0,0,0,0,0,0,0,0,0,0,0,0,0,0,,False,municipality::apeldoorn,Apeldoorn,,municipality_polygon
0202,Arnhem,tcm:106-353448-1024,4,/regioinformatie/gemeente/arnhem/,arnhem,POINT (5.892685285378967 52.0009699072459),5.892685285378967,52.0009699072459,Arnhem,Gelderland,,8,0,8,0,0,0,0,0,0,0,0,0,0,1,Onbekend | Roofvis,False,municipality::arnhem,Arnhem,Gelderland,municipality_polygon
0203,Barneveld,tcm:106-353449-1024,4,/regioinformatie/gemeente/barneveld/,barneveld,POINT (5.6418598806934925 52.168326592872),5.6418598806934925,52.168326592872,,,midwest-oost,0,0,0,0,0,0,0,0,0,0,0,0,0,0,,True,municipality::barneveld,Barneveld,,municipality_polygon
1859,Berkelland,tcm:106-353450-1024,4,/regioinformatie/gemeente/berkelland/,berkelland,POINT (6.570817648432807 52.1008223438934),6.570817648432807,52.1008223438934,,,,0,0,0,0,0,0,0,0,0,0,0,0,0,0,,False,municipality::berkelland,Berkelland,,municipality_polygon
0209,Beuningen,tcm:106-353451-1024,4,/regioinformatie/gemeente/beuningen/,beuningen,POINT (5.739982499752805 51.86273614495898),5.739982499752805,51.86273614495898,,,,0,0,0,0,0,0,0,0,0,0,0,0,0,0,,False,municipality::beuningen,Beuningen,,municipality_polygon
1876,Bronckhorst,tcm:106-353452-1024,4,/regioinformatie/gemeente/bronckhorst/,bronckhorst,POINT (6.303093111213181 52.04521814478163),6.303093111213181,52.04521814478163,,,,0,0,0,0,0,0,0,0,0,0,0,0,0,0,,False,municipality::bronckhorst,Bronckhorst,,municipality_polygon
0213,Brummen,tcm:106-353453-1024,4,/regioinformatie/gemeente/brummen/,brummen,POINT (6.118605978205803 52.109044866654045),6.118605978205803,52.109044866654045,,,,0,0,0,0,0,0,0,0,0,0,0,0,0,0,,False,municipality::brummen,Brummen,,municipality_polygon
0214,Buren,tcm:106-353454-1024,4,/regioinformatie/gemeente/buren/,buren,POINT (5.403535152258133 51.93828916778111),5.403535152258133,51.93828916778111,,,,0,0,0,0,0,0,0,0,0,0,0,0,0,0,,False,municipality::buren,Buren,,municipality_polygon
0216,Culemborg,tcm:106-353455-1024,4,/regioinformatie/gemeente/culemborg/,culemborg,POINT (5.210447391644825 51.94589144469048),5.210447391644825,51.94589144469048,,,,0,0,0,0,0,0,0,0,0,0,0,0,0,0,,False,municipality::culemborg,Culemborg,,municipality_polygon
0221,Doesburg,tcm:106-353456-1024,4,/regioinformatie/gemeente/doesburg/,doesburg,POINT (6.146659444524602 52.018573171311935),6.146659444524602,52.018573171311935,,,,0,0,0,0,0,0,0,0,0,0,0,0,0,0,,False,municipality::doesburg,Doesburg,,municipality_polygon
0222,Doetinchem,tcm:106-353457-1024,4,/regioinformatie/gemeente/doetinchem/,doetinchem,POINT (6.28681271673216 51.960884017109365),6.28681271673216,51.960884017109365,,,,0,0,0,0,0,0,0,0,0,0,0,0,0,0,,False,municipality::doetinchem,Doetinchem,,municipality_polygon
0225,Druten,tcm:106-353458-1024,4,/regioinformatie/gemeente/druten/,druten,POINT (5.612432756282784 51.87487137059646),5.612432756282784,51.87487137059646,,,,0,0,0,0,0,0,0,0,0,0,0,0,0,0,,False,municipality::druten,Druten,,municipality_polygon
0226,Duiven,tcm:106-353459-1024,4,/regioinformatie/gemeente/duiven/,duiven,POINT (6.018067299434789 51.94650038397358),6.018067299434789,51.94650038397358,,,,0,0,0,0,0,0,0,0,0,0,0,0,0,0,,False,municipality::duiven,Duiven,,municipality_polygon
0228,Ede,tcm:106-353460-1024,4,/regioinformatie/gemeente/ede/,ede,POINT (5.728127954095208 52.07643678056407),5.728127954095208,52.07643678056407,Ede,Gelderland,midwest-oost,8,0,8,0,0,0,0,0,0,0,0,0,2,1,Karper | Onbekend,True,municipality::ede,Ede,Gelderland,municipality_polygon
0230,Elburg,tcm:106-353461-1024,4,/regioinformatie/gemeente/elburg/,elburg,POINT (5.849147556352315 52.41323229791492),5.849147556352315,52.41323229791492,Elburg,Gelderland,midwest-oost,39,0,39,0,5,0,0,0,0,0,5,0,1,3,Onbekend | Roofvis | Karper,True,municipality::elburg,Elburg,Gelderland,municipality_polygon
0232,Epe,tcm:106-353462-1024,4,/regioinformatie/gemeente/epe/,epe,POINT (5.955057465631278 52.32545789738536),5.955057465631278,52.32545789738536,,,midwest-oost,0,0,0,0,0,0,0,0,0,0,0,0,0,0,,True,municipality::epe,Epe,,municipality_polygon
0233,Ermelo,tcm:106-353463-1024,4,/regioinformatie/gemeente/ermelo/,ermelo,POINT (5.666021884384331 52.288262829927895),5.666021884384331,52.288262829927895,,,midwest-oost,0,0,0,0,0,0,0,0,0,0,0,0,0,0,,True,municipality::ermelo,Ermelo,,municipality_polygon
0236,Geldermalsen,tcm:106-353464-1024,4,/regioinformatie/gemeente/geldermalsen/,geldermalsen,POINT (5.220926526650974 51.8877797796153),5.220926526650974,51.8877797796153,,,,0,0,0,0,0,0,0,0,0,0,0,0,0,0,,False,municipality::geldermalsen,Geldermalsen,,municipality_polygon
0241,Groesbeek,tcm:106-353465-1024,4,/regioinformatie/gemeente/groesbeek/,groesbeek,POINT (5.949794775089941 51.81996308896704),5.949794775089941,51.81996308896704,,,,0,0,0,0,0,0,0,0,0,0,0,0,0,0,,False,municipality::groesbeek,Groesbeek,,municipality_polygon
0243,Harderwijk,tcm:106-353466-1024,4,/regioinformatie/gemeente/harderwijk/,harderwijk,POINT (5.64437324584871 52.341277741933474),5.64437324584871,52.341277741933474,Harderwijk,Gelderland,midwest-oost,7,0,7,0,0,0,0,0,0,0,0,0,1,2,Onbekend | Roofvis,True,municipality::harderwijk,Harderwijk,Gelderland,municipality_polygon
0244,Hattem,tcm:106-353467-1024,4,/regioinformatie/gemeente/hattem/,hattem,POINT (6.052992589615267 52.47481943567896),6.052992589615267,52.47481943567896,,,,0,0,0,0,0,0,0,0,0,0,0,0,0,0,,False,municipality::hattem,Hattem,,municipality_polygon
0246,Heerde,tcm:106-353468-1024,4,/regioinformatie/gemeente/heerde/,heerde,POINT (6.050379344678243 52.40603679555942),6.050379344678243,52.40603679555942,,,,0,0,0,0,0,0,0,0,0,0,0,0,0,0,,False,municipality::heerde,Heerde,,municipality_polygon
0252,Heumen,tcm:106-353469-1024,4,/regioinformatie/gemeente/heumen/,heumen,POINT (5.818520080199088 51.77789878260583),5.818520080199088,51.77789878260583,,,,0,0,0,0,0,0,0,0,0,0,0,0,0,0,,False,municipality::heumen,Heumen,,municipality_polygon
0733,Lingewaal,tcm:106-353470-1024,4,/regioinformatie/gemeente/lingewaal/,lingewaal,POINT (5.089293850864982 51.847648033763335),5.089293850864982,51.847648033763335,,,,0,0,0,0,0,0,0,0,0,0,0,0,0,0,,False,municipality::lingewaal,Lingewaal,,municipality_polygon
1705,Lingewaard,tcm:106-353471-1024,4,/regioinformatie/gemeente/lingewaard/,lingewaard,POINT (5.9422599225318 51.90148983918379),5.9422599225318,51.90148983918379,,,,0,0,0,0,0,0,0,0,0,0,0,0,0,0,,False,municipality::lingewaard,Lingewaard,,municipality_polygon
0262,Lochem,tcm:106-353472-1024,4,/regioinformatie/gemeente/lochem/,lochem,POINT (6.346666283140654 52.17947006985145),6.346666283140654,52.17947006985145,,,,0,0,0,0,0,0,0,0,0,0,0,0,0,0,,False,municipality::lochem,Lochem,,municipality_polygon
0263,Maasdriel,tcm:106-353473-1024,4,/regioinformatie/gemeente/maasdriel/,maasdriel,POINT (5.296806504253389 51.776245355115044),5.296806504253389,51.776245355115044,,,,0,0,0,0,0,0,0,0,0,0,0,0,0,0,,False,municipality::maasdriel,Maasdriel,,municipality_polygon
1955,Montferland,tcm:106-353475-1024,4,/regioinformatie/gemeente/montferland/,montferland,POINT (6.213884949294069 51.916967082865106),6.213884949294069,51.916967082865106,,,,0,0,0,0,0,0,0,0,0,0,0,0,0,0,,False,municipality::montferland,Montferland,,municipality_polygon
1740,Neder-Betuwe,tcm:106-353476-1024,4,/regioinformatie/gemeente/neder-betuwe/,neder betuwe,POINT (5.586839956548625 51.91580984827291),5.586839956548625,51.91580984827291,,,,0,0,0,0,0,0,0,0,0,0,0,0,0,0,,False,municipality::neder-betuwe,Neder-Betuwe,,municipality_polygon
0304,Neerijnen,tcm:106-353477-1024,4,/regioinformatie/gemeente/neerijnen/,neerijnen,POINT (5.283088690927454 51.83538714267858),5.283088690927454,51.83538714267858,,,,0,0,0,0,0,0,0,0,0,0,0,0,0,0,,False,municipality::neerijnen,Neerijnen,,municipality_polygon
0267,Nijkerk,tcm:106-353478-1024,4,/regioinformatie/gemeente/nijkerk/,nijkerk,POINT (5.484372398634658 52.21214665667199),5.484372398634658,52.21214665667199,,,midwest-oost,0,0,0,0,0,0,0,0,0,0,0,0,0,0,,True,municipality::nijkerk,Nijkerk,,municipality_polygon
0268,Nijmegen,tcm:106-353479-1024,4,/regioinformatie/gemeente/nijmegen/,nijmegen,POINT (5.836467888941969 51.83850720841056),5.836467888941969,51.83850720841056,,,,0,0,0,0,0,0,0,0,0,0,0,0,0,0,,False,municipality::nijmegen,Nijmegen,,municipality_polygon
0302,Nunspeet,tcm:106-353480-1024,4,/regioinformatie/gemeente/nunspeet/,nunspeet,POINT (5.786111975237987 52.33915683438413),5.786111975237987,52.33915683438413,,,midwest-oost,0,0,0,0,0,0,0,0,0,0,0,0,0,0,,True,municipality::nunspeet,Nunspeet,,municipality_polygon
0269,Oldebroek,tcm:106-353481-1024,4,/regioinformatie/gemeente/oldebroek/,oldebroek,POINT (5.936967829787518 52.45675571818957),5.936967829787518,52.45675571818957,,,,0,0,0,0,0,0,0,0,0,0,0,0,0,0,,False,municipality::oldebroek,Oldebroek,,municipality_polygon
1586,Oost Gelre,tcm:106-353482-1024,4,/regioinformatie/gemeente/oost-gelre/,oost gelre,POINT (6.57563718431098 52.00959769695327),6.57563718431098,52.00959769695327,,,,0,0,0,0,0,0,0,0,0,0,0,0,0,0,,False,municipality::oost-gelre,Oost Gelre,,municipality_polygon
1509,Oude IJsselstreek,tcm:106-353483-1024,4,/regioinformatie/gemeente/oude-ijsselstreek/,oude ijsselstreek,POINT (6.409486156078872 51.90783240670487),6.409486156078872,51.90783240670487,,,,0,0,0,0,0,0,0,0,0,0,0,0,0,0,,False,municipality::oude-ijsselstreek,Oude IJsselstreek,,municipality_polygon
1734,Overbetuwe,tcm:106-353484-1024,4,/regioinformatie/gemeente/overbetuwe/,overbetuwe,POINT (5.778416894780978 51.92425905389607),5.778416894780978,51.92425905389607,,,,0,0,0,0,0,0,0,0,0,0,0,0,0,0,,False,municipality::overbetuwe,Overbetuwe,,municipality_polygon
0273,Putten,tcm:106-353485-1024,4,/regioinformatie/gemeente/putten/,putten,POINT (5.582611193047732 52.24391316049436),5.582611193047732,52.24391316049436,,,midwest-oost,0,0,0,0,0,0,0,0,0,0,0,0,0,0,,True,municipality::putten,Putten,,municipality_polygon
0274,Renkum,tcm:106-353486-1024,4,/regioinformatie/gemeente/renkum/,renkum,POINT (5.784768263968194 51.989548705143804),5.784768263968194,51.989548705143804,,,,0,0,0,0,0,0,0,0,0,0,0,0,0,0,,False,municipality::renkum,Renkum,,municipality_polygon
0275,Rheden,tcm:106-353487-1024,4,/regioinformatie/gemeente/rheden/,rheden,POINT (6.051301776919764 52.03373178829988),6.051301776919764,52.03373178829988,,,,0,0,0,0,0,0,0,0,0,0,0,0,0,0,,False,municipality::rheden,Rheden,,municipality_polygon
0196,Rijnwaarden,tcm:106-353488-1024,4,/regioinformatie/gemeente/rijnwaarden/,rijnwaarden,POINT (6.085141517089262 51.88132254396798),6.085141517089262,51.88132254396798,,,,0,0,0,0,0,0,0,0,0,0,0,0,0,0,,False,municipality::rijnwaarden,Rijnwaarden,,municipality_polygon
0277,Rozendaal,tcm:106-353489-1024,4,/regioinformatie/gemeente/rozendaal/,rozendaal,POINT (5.967869591570109 52.04246223872163),5.967869591570109,52.04246223872163,,,,0,0,0,0,0,0,0,0,0,0,0,0,0,0,,False,municipality::rozendaal,Rozendaal,,municipality_polygon
0279,Scherpenzeel,tcm:106-353490-1024,4,/regioinformatie/gemeente/scherpenzeel/,scherpenzeel,POINT (5.500401765478896 52.0893472103132),5.500401765478896,52.0893472103132,,,midwest-oost,0,0,0,0,0,0,0,0,0,0,0,0,0,0,,True,municipality::scherpenzeel,Scherpenzeel,,municipality_polygon
0281,Tiel,tcm:106-353491-1024,4,/regioinformatie/gemeente/tiel/,tiel,POINT (5.407035312279674 51.885064092412975),5.407035312279674,51.885064092412975,,,,0,0,0,0,0,0,0,0,0,0,0,0,0,0,,False,municipality::tiel,Tiel,,municipality_polygon
0285,Voorst,tcm:106-353493-1024,4,/regioinformatie/gemeente/voorst/,voorst,POINT (6.099035972101059 52.225529413335394),6.099035972101059,52.225529413335394,Voorst,Gelderland,,4,0,4,0,0,0,0,0,0,0,0,0,1,1,Onbekend,False,municipality::voorst,Voorst,Gelderland,municipality_polygon
0289,Wageningen,tcm:106-353494-1024,4,/regioinformatie/gemeente/wageningen/,wageningen,POINT (5.663601044862331 51.97335638678317),5.663601044862331,51.97335638678317,,,,0,0,0,0,0,0,0,0,0,0,0,0,0,0,,False,municipality::wageningen,Wageningen,,municipality_polygon
0668,West Maas en Waal,tcm:106-353495-1024,4,/regioinformatie/gemeente/west-maas-en-waal/,west maas en waal,POINT (5.496778274370656 51.85176554046028),5.496778274370656,51.85176554046028,,,,0,0,0,0,0,0,0,0,0,0,0,0,0,0,,False,municipality::west-maas-en-waal,West Maas en Waal,,municipality_polygon
0293,Westervoort,tcm:106-353496-1024,4,/regioinformatie/gemeente/westervoort/,westervoort,POINT (5.970955872673633 51.9573919587613),5.970955872673633,51.9573919587613,,,,0,0,0,0,0,0,0,0,0,0,0,0,0,0,,False,municipality::westervoort,Westervoort,,municipality_polygon
0296,Wijchen,tcm:106-353497-1024,4,/regioinformatie/gemeente/wijchen/,wijchen,POINT (5.70168448911116 51.816865724942005),5.70168448911116,51.816865724942005,,,,0,0,0,0,0,0,0,0,0,0,0,0,0,0,,False,municipality::wijchen,Wijchen,,municipality_polygon
0294,Winterswijk,tcm:106-353498-1024,4,/regioinformatie/gemeente/winterswijk/,winterswijk,POINT (6.725891244911133 51.96984485356031),6.725891244911133,51.96984485356031,,,,0,0,0,0,0,0,0,0,0,0,0,0,0,0,,False,municipality::winterswijk,Winterswijk,,municipality_polygon
0297,Zaltbommel,tcm:106-353499-1024,4,/regioinformatie/gemeente/zaltbommel/,zaltbommel,POINT (5.158583951579665 51.79226726103952),5.158583951579665,51.79226726103952,,,,0,0,0,0,0,0,0,0,0,0,0,0,0,0,,False,municipality::zaltbommel,Zaltbommel,,municipality_polygon
0299,Zevenaar,tcm:106-353500-1024,4,/regioinformatie/gemeente/zevenaar/,zevenaar,POINT (6.085547790256462 51.95945073818822),6.085547790256462,51.95945073818822,Zevenaar,Gelderland,,54,0,54,0,0,0,0,0,0,0,0,0,0,5,Onbekend | Roofvis | Karper,False,municipality::zevenaar,Zevenaar,Gelderland,municipality_polygon
0301,Zutphen,tcm:106-353501-1024,4,/regioinformatie/gemeente/zutphen/,zutphen,POINT (6.233699553175729 52.13626335531737),6.233699553175729,52.13626335531737,Zutphen,Gelderland,,4,0,4,0,0,0,0,0,0,0,0,0,1,1,Roofvis | Onbekend,False,municipality::zutphen,Zutphen,Gelderland,municipality_polygon
0003,Appingedam,tcm:106-353503-1024,4,/regioinformatie/gemeente/appingedam/,appingedam,POINT (6.849434449738255 53.31726752806947),6.849434449738255,53.31726752806947,,,,0,0,0,0,0,0,0,0,0,0,0,0,0,0,,False,municipality::appingedam,Appingedam,,municipality_polygon
0005,Bedum,tcm:106-353504-1024,4,/regioinformatie/gemeente/bedum/,bedum,POINT (6.597034039566539 53.29490888112182),6.597034039566539,53.29490888112182,,,,0,0,0,0,0,0,0,0,0,0,0,0,0,0,,False,municipality::bedum,Bedum,,municipality_polygon
0007,Bellingwedde,tcm:106-353505-1024,4,/regioinformatie/gemeente/bellingwedde/,bellingwedde,POINT (7.121080925648729 53.098641179298546),7.121080925648729,53.098641179298546,,,,0,0,0,0,0,0,0,0,0,0,0,0,0,0,,False,municipality::bellingwedde,Bellingwedde,,municipality_polygon
1663,De Marne,tcm:106-353506-1024,4,/regioinformatie/gemeente/de-marne/,de marne,POINT (6.355945471295038 53.38691665425831),6.355945471295038,53.38691665425831,,,,0,0,0,0,0,0,0,0,0,0,0,0,0,0,,False,municipality::de-marne,De Marne,,municipality_polygon
0010,Delfzijl,tcm:106-353507-1024,4,/regioinformatie/gemeente/delfzijl/,delfzijl,POINT (6.951380463067184 53.33206347448169),6.951380463067184,53.33206347448169,,,,0,0,0,0,0,0,0,0,0,0,0,0,0,0,,False,municipality::delfzijl,Delfzijl,,municipality_polygon
1651,Eemsmond,tcm:106-353508-1024,4,/regioinformatie/gemeente/eemsmond/,eemsmond,POINT (6.615219109700489 53.47094964072355),6.615219109700489,53.47094964072355,,,,0,0,0,0,0,0,0,0,0,0,0,0,0,0,,False,municipality::eemsmond,Eemsmond,,municipality_polygon
0014,Groningen (Gr),tcm:106-353509-1024,4,/regioinformatie/gemeente/groningen/,groningen,POINT (6.563346684140064 53.22226535223567),6.563346684140064,53.22226535223567,,,,0,0,0,0,0,0,0,0,0,0,0,0,0,0,,False,municipality::groningen,Groningen (Gr),,municipality_polygon
0015,Grootegast,tcm:106-353510-1024,4,/regioinformatie/gemeente/grootegast/,grootegast,POINT (6.273440984105846 53.208713426886845),6.273440984105846,53.208713426886845,,,,0,0,0,0,0,0,0,0,0,0,0,0,0,0,,False,municipality::grootegast,Grootegast,,municipality_polygon
0017,Haren,tcm:106-353511-1024,4,/regioinformatie/gemeente/haren/,haren,POINT (6.631196909419104 53.15453127619297),6.631196909419104,53.15453127619297,,,,0,0,0,0,0,0,0,0,0,0,0,0,0,0,,False,municipality::haren,Haren,,municipality_polygon
0018,Hoogezand-Sappemeer,tcm:106-353512-1024,4,/regioinformatie/gemeente/hoogezand-sappemeer/,hoogezand sappemeer,POINT (6.74692878216056 53.147404333079045),6.74692878216056,53.147404333079045,,,,0,0,0,0,0,0,0,0,0,0,0,0,0,0,,False,municipality::hoogezand-sappemeer,Hoogezand-Sappemeer,,municipality_polygon
0022,Leek,tcm:106-353513-1024,4,/regioinformatie/gemeente/leek/,leek,POINT (6.369194790103597 53.163253186836776),6.369194790103597,53.163253186836776,,,,0,0,0,0,0,0,0,0,0,0,0,0,0,0,,False,municipality::leek,Leek,,municipality_polygon
0024,Loppersum,tcm:106-353514-1024,4,/regioinformatie/gemeente/loppersum/,loppersum,POINT (6.728196690115345 53.34063853437572),6.728196690115345,53.34063853437572,,,,0,0,0,0,0,0,0,0,0,0,0,0,0,0,,False,municipality::loppersum,Loppersum,,municipality_polygon
0025,Marum,tcm:106-353515-1024,4,/regioinformatie/gemeente/marum/,marum,POINT (6.276387797910117 53.14940444679459),6.276387797910117,53.14940444679459,,,,0,0,0,0,0,0,0,0,0,0,0,0,0,0,,False,municipality::marum,Marum,,municipality_polygon
1987,Menterwolde,tcm:106-353516-1024,4,/regioinformatie/gemeente/menterwolde/,menterwolde,POINT (6.878309806794859 53.16690399585713),6.878309806794859,53.16690399585713,,,,0,0,0,0,0,0,0,0,0,0,0,0,0,0,,False,municipality::menterwolde,Menterwolde,,municipality_polygon
1895,Oldambt,tcm:106-353517-1024,4,/regioinformatie/gemeente/oldambt/,oldambt,POINT (7.0744795948600805 53.21217653168076),7.0744795948600805,53.21217653168076,,,,0,0,0,0,0,0,0,0,0,0,0,0,0,0,,False,municipality::oldambt,Oldambt,,municipality_polygon
0765,Pekela,tcm:106-353518-1024,4,/regioinformatie/gemeente/pekela/,pekela,POINT (6.972999096924513 53.070653016282094),6.972999096924513,53.070653016282094,,,,0,0,0,0,0,0,0,0,0,0,0,0,0,0,,False,municipality::pekela,Pekela,,municipality_polygon
0040,Slochteren,tcm:106-353519-1024,4,/regioinformatie/gemeente/slochteren/,slochteren,POINT (6.784576492460254 53.235782234657215),6.784576492460254,53.235782234657215,,,,0,0,0,0,0,0,0,0,0,0,0,0,0,0,,False,municipality::slochteren,Slochteren,,municipality_polygon
0037,Stadskanaal,tcm:106-353520-1024,4,/regioinformatie/gemeente/stadskanaal/,stadskanaal,POINT (7.0101372640859605 53.00228220766898),7.0101372640859605,53.00228220766898,,,,0,0,0,0,0,0,0,0,0,0,0,0,0,0,,False,municipality::stadskanaal,Stadskanaal,,municipality_polygon
0009,Ten Boer,tcm:106-353521-1024,4,/regioinformatie/gemeente/ten-boer/,ten boer,POINT (6.691360062098247 53.27880884684662),6.691360062098247,53.27880884684662,,,,0,0,0,0,0,0,0,0,0,0,0,0,0,0,,False,municipality::ten-boer,Ten Boer,,municipality_polygon
0047,Veendam,tcm:106-353522-1024,4,/regioinformatie/gemeente/veendam/,veendam,POINT (6.880088935600448 53.088935256942875),6.880088935600448,53.088935256942875,,,,0,0,0,0,0,0,0,0,0,0,0,0,0,0,,False,municipality::veendam,Veendam,,municipality_polygon
0048,Vlagtwedde,tcm:106-353523-1024,4,/regioinformatie/gemeente/vlagtwedde/,vlagtwedde,POINT (7.119517091177753 52.95939633634273),7.119517091177753,52.95939633634273,,,,0,0,0,0,0,0,0,0,0,0,0,0,0,0,,False,municipality::vlagtwedde,Vlagtwedde,,municipality_polygon
0053,Winsum,tcm:106-353524-1024,4,/regioinformatie/gemeente/winsum/,winsum,POINT (6.507696592001959 53.329655096173),6.507696592001959,53.329655096173,,,,0,0,0,0,0,0,0,0,0,0,0,0,0,0,,False,municipality::winsum,Winsum,,municipality_polygon
0056,Zuidhorn,tcm:106-353525-1024,4,/regioinformatie/gemeente/zuidhorn/,zuidhorn,POINT (6.37437158541491 53.27338928790281),6.37437158541491,53.27338928790281,,,,0,0,0,0,0,0,0,0,0,0,0,0,0,0,,False,municipality::zuidhorn,Zuidhorn,,municipality_polygon
0888,Beek,tcm:106-353527-1024,4,/regioinformatie/gemeente/beek/,beek,POINT (5.809318639826098 50.931004739806184),5.809318639826098,50.931004739806184,,,,0,0,0,0,0,0,0,0,0,0,0,0,0,0,,False,municipality::beek,Beek,,municipality_polygon
0889,Beesel,tcm:106-353528-1024,4,/regioinformatie/gemeente/beesel/,beesel,POINT (6.068989049659422 51.26922724254611),6.068989049659422,51.26922724254611,,,,0,0,0,0,0,0,0,0,0,0,0,0,0,0,,False,municipality::beesel,Beesel,,municipality_polygon
0893,Bergen (L),tcm:106-353529-1024,4,/regioinformatie/gemeente/bergen-l/,bergen,POINT (6.089407324925285 51.59192353328793),6.089407324925285,51.59192353328793,Bergen (L),Limburg,,18,0,0,0,0,0,0,0,0,0,0,0,0,2,Onbekend | Karper | Zoutwater,False,municipality::bergen,Bergen (L),Limburg,municipality_polygon
0899,Brunssum,tcm:106-353530-1024,4,/regioinformatie/gemeente/brunssum/,brunssum,POINT (5.978275705863353 50.94300604508868),5.978275705863353,50.94300604508868,,,,0,0,0,0,0,0,0,0,0,0,0,0,0,0,,False,municipality::brunssum,Brunssum,,municipality_polygon
1711,Echt-Susteren,tcm:106-353531-1024,4,/regioinformatie/gemeente/echt-susteren/,echt susteren,POINT (5.908202336048316 51.08501877189159),5.908202336048316,51.08501877189159,,,,0,0,0,0,0,0,0,0,0,0,0,0,0,0,,False,municipality::echt-susteren,Echt-Susteren,,municipality_polygon
1903,Eijsden-Margraten,tcm:106-353532-1024,4,/regioinformatie/gemeente/eijsden-margraten/,eijsden margraten,POINT (5.773978683871096 50.80109024656665),5.773978683871096,50.80109024656665,,,,0,0,0,0,0,0,0,0,0,0,0,0,0,0,,False,municipality::eijsden-margraten,Eijsden-Margraten,,municipality_polygon
0907,Gennep,tcm:106-353533-1024,4,/regioinformatie/gemeente/gennep/,gennep,POINT (5.986953946269552 51.69935588976073),5.986953946269552,51.69935588976073,,,,0,0,0,0,0,0,0,0,0,0,0,0,0,0,,False,municipality::gennep,Gennep,,municipality_polygon
1729,Gulpen-Wittem,tcm:106-353534-1024,4,/regioinformatie/gemeente/gulpen-wittem/,gulpen wittem,POINT (5.90006383045176 50.80229528594437),5.90006383045176,50.80229528594437,,,,0,0,0,0,0,0,0,0,0,0,0,0,0,0,,False,municipality::gulpen-wittem,Gulpen-Wittem,,municipality_polygon
0917,Heerlen,tcm:106-353535-1024,4,/regioinformatie/gemeente/heerlen/,heerlen,POINT (5.969493151508353 50.89328270291668),5.969493151508353,50.89328270291668,,,,0,0,0,0,0,0,0,0,0,0,0,0,0,0,,False,municipality::heerlen,Heerlen,,municipality_polygon
1507,Horst aan de Maas,tcm:106-353536-1024,4,/regioinformatie/gemeente/horst-aan-de-maas/,horst aan de maas,POINT (6.041585661184597 51.44480225530646),6.041585661184597,51.44480225530646,,,,0,0,0,0,0,0,0,0,0,0,0,0,0,0,,False,municipality::horst-aan-de-maas,Horst aan de Maas,,municipality_polygon
0928,Kerkrade,tcm:106-353537-1024,4,/regioinformatie/gemeente/kerkrade/,kerkrade,POINT (6.051305720394194 50.87188896846855),6.051305720394194,50.87188896846855,,,,0,0,0,0,0,0,0,0,0,0,0,0,0,0,,False,municipality::kerkrade,Kerkrade,,municipality_polygon
0882,Landgraaf,tcm:106-353538-1024,4,/regioinformatie/gemeente/landgraaf/,landgraaf,POINT (6.032803968878419 50.9063939864496),6.032803968878419,50.9063939864496,,,,0,0,0,0,0,0,0,0,0,0,0,0,0,0,,False,municipality::landgraaf,Landgraaf,,municipality_polygon
1640,Leudal,tcm:106-353539-1024,4,/regioinformatie/gemeente/leudal/,leudal,POINT (5.884727111677675 51.23942538271333),5.884727111677675,51.23942538271333,,,,0,0,0,0,0,0,0,0,0,0,0,0,0,0,,False,municipality::leudal,Leudal,,municipality_polygon
1641,Maasgouw,tcm:106-353540-1024,4,/regioinformatie/gemeente/maasgouw/,maasgouw,POINT (5.882491464757699 51.16157658673474),5.882491464757699,51.16157658673474,,,,0,0,0,0,0,0,0,0,0,0,0,0,0,0,,False,municipality::maasgouw,Maasgouw,,municipality_polygon
0935,Maastricht,tcm:106-353541-1024,4,/regioinformatie/gemeente/maastricht/,maastricht,POINT (5.699553878543695 50.852935569266805),5.699553878543695,50.852935569266805,,,,0,0,0,0,0,0,0,0,0,0,0,0,0,0,,False,municipality::maastricht,Maastricht,,municipality_polygon
0938,Meerssen,tcm:106-353542-1024,4,/regioinformatie/gemeente/meerssen/,meerssen,POINT (5.756520227914139 50.90134146061453),5.756520227914139,50.90134146061453,,,,0,0,0,0,0,0,0,0,0,0,0,0,0,0,,False,municipality::meerssen,Meerssen,,municipality_polygon
0944,Mook en Middelaar,tcm:106-353543-1024,4,/regioinformatie/gemeente/mook-en-middelaar/,mook en middelaar,POINT (5.899783815987595 51.74755798588251),5.899783815987595,51.74755798588251,,,,0,0,0,0,0,0,0,0,0,0,0,0,0,0,,False,municipality::mook-en-middelaar,Mook en Middelaar,,municipality_polygon
0946,Nederweert,tcm:106-353544-1024,4,/regioinformatie/gemeente/nederweert/,nederweert,POINT (5.773327184810924 51.2943975501521),5.773327184810924,51.2943975501521,,,,0,0,0,0,0,0,0,0,0,0,0,0,0,0,,False,municipality::nederweert,Nederweert,,municipality_polygon
0951,Nuth,tcm:106-353545-1024,4,/regioinformatie/gemeente/nuth/,nuth,POINT (5.859461786851776 50.90533841311114),5.859461786851776,50.90533841311114,,,,0,0,0,0,0,0,0,0,0,0,0,0,0,0,,False,municipality::nuth,Nuth,,municipality_polygon
0881,Onderbanken,tcm:106-353546-1024,4,/regioinformatie/gemeente/onderbanken/,onderbanken,POINT (5.965854878956937 50.96997861010803),5.965854878956937,50.96997861010803,,,,0,0,0,0,0,0,0,0,0,0,0,0,0,0,,False,municipality::onderbanken,Onderbanken,,municipality_polygon
1894,Peel en Maas,tcm:106-353547-1024,4,/regioinformatie/gemeente/peel-en-maas/,peel en maas,POINT (5.994837584809467 51.33634109962083),5.994837584809467,51.33634109962083,,,,0,0,0,0,0,0,0,0,0,0,0,0,0,0,,False,municipality::peel-en-maas,Peel en Maas,,municipality_polygon
1669,Roerdalen,tcm:106-353548-1024,4,/regioinformatie/gemeente/roerdalen/,roerdalen,POINT (6.040936205281684 51.145627960610234),6.040936205281684,51.145627960610234,,,,0,0,0,0,0,0,0,0,0,0,0,0,0,0,,False,municipality::roerdalen,Roerdalen,,municipality_polygon
0957,Roermond,tcm:106-353549-1024,4,/regioinformatie/gemeente/roermond/,roermond,POINT (6.011629702101181 51.201197895277524),6.011629702101181,51.201197895277524,,,,0,0,0,0,0,0,0,0,0,0,0,0,0,0,,False,municipality::roermond,Roermond,,municipality_polygon
0962,Schinnen,tcm:106-353550-1024,4,/regioinformatie/gemeente/schinnen/,schinnen,POINT (5.887608291369817 50.95039385395414),5.887608291369817,50.95039385395414,,,,0,0,0,0,0,0,0,0,0,0,0,0,0,0,,False,municipality::schinnen,Schinnen,,municipality_polygon
0965,Simpelveld,tcm:106-353551-1024,4,/regioinformatie/gemeente/simpelveld/,simpelveld,POINT (5.986604989548124 50.82881842153103),5.986604989548124,50.82881842153103,,,,0,0,0,0,0,0,0,0,0,0,0,0,0,0,,False,municipality::simpelveld,Simpelveld,,municipality_polygon
1883,Sittard-Geleen,tcm:106-353552-1024,4,/regioinformatie/gemeente/sittard-geleen/,sittard geleen,POINT (5.828128254793478 51.005007806632825),5.828128254793478,51.005007806632825,,,,0,0,0,0,0,0,0,0,0,0,0,0,0,0,,False,municipality::sittard-geleen,Sittard-Geleen,,municipality_polygon
0971,Stein,tcm:106-353553-1024,4,/regioinformatie/gemeente/stein/,stein,POINT (5.7637719316707186 50.969094785473935),5.7637719316707186,50.969094785473935,,,,0,0,0,0,0,0,0,0,0,0,0,0,0,0,,False,municipality::stein,Stein,,municipality_polygon
0981,Vaals,tcm:106-353554-1024,4,/regioinformatie/gemeente/vaals/,vaals,POINT (5.975891371629874 50.774270893669275),5.975891371629874,50.774270893669275,,,,0,0,0,0,0,0,0,0,0,0,0,0,0,0,,False,municipality::vaals,Vaals,,municipality_polygon
0994,Valkenburg aan de Geul,tcm:106-353555-1024,4,/regioinformatie/gemeente/valkenburg-aan-de-geul/,valkenburg aan de geul,POINT (5.82382722216244 50.8607090206129),5.82382722216244,50.8607090206129,,,,0,0,0,0,0,0,0,0,0,0,0,0,0,0,,False,municipality::valkenburg-aan-de-geul,Valkenburg aan de Geul,,municipality_polygon
0983,Venlo,tcm:106-353556-1024,4,/regioinformatie/gemeente/venlo/,venlo,POINT (6.159149127957039 51.39082708379391),6.159149127957039,51.39082708379391,,,,0,0,0,0,0,0,0,0,0,0,0,0,0,0,,False,municipality::venlo,Venlo,,municipality_polygon
0984,Venray,tcm:106-353557-1024,4,/regioinformatie/gemeente/venray/,venray,POINT (5.963044467009378 51.51540641045333),5.963044467009378,51.51540641045333,,,,0,0,0,0,0,0,0,0,0,0,0,0,0,0,,False,municipality::venray,Venray,,municipality_polygon
0986,Voerendaal,tcm:106-353558-1024,4,/regioinformatie/gemeente/voerendaal/,voerendaal,POINT (5.916550857112963 50.86936881394562),5.916550857112963,50.86936881394562,,,,0,0,0,0,0,0,0,0,0,0,0,0,0,0,,False,municipality::voerendaal,Voerendaal,,municipality_polygon
0988,Weert,tcm:106-353559-1024,4,/regioinformatie/gemeente/weert/,weert,POINT (5.6916077456328775 51.23354455300786),5.6916077456328775,51.23354455300786,,,,0,0,0,0,0,0,0,0,0,0,0,0,0,0,,False,municipality::weert,Weert,,municipality_polygon
0738,Aalburg,tcm:106-353561-1024,4,/regioinformatie/gemeente/aalburg/,aalburg,POINT (5.065533322738308 51.74595664980939),5.065533322738308,51.74595664980939,,,,0,0,0,0,0,0,0,0,0,0,0,0,0,0,,False,municipality::aalburg,Aalburg,,municipality_polygon
1723,Alphen-Chaam,tcm:106-353562-1024,4,/regioinformatie/gemeente/alphen-chaam/,alphen chaam,POINT (4.887147033457683 51.50140599742157),4.887147033457683,51.50140599742157,,,,0,0,0,0,0,0,0,0,0,0,0,0,0,0,,False,municipality::alphen-chaam,Alphen-Chaam,,municipality_polygon
0743,Asten,tcm:106-353563-1024,4,/regioinformatie/gemeente/asten/,asten,POINT (5.779471149278906 51.38631950067731),5.779471149278906,51.38631950067731,,,,0,0,0,0,0,0,0,0,0,0,0,0,0,0,,False,municipality::asten,Asten,,municipality_polygon
0744,Baarle-Nassau,tcm:106-353564-1024,4,/regioinformatie/gemeente/baarle-nassau/,baarle nassau,POINT (4.893089176371833 51.439031700367515),4.893089176371833,51.439031700367515,,,,0,0,0,0,0,0,0,0,0,0,0,0,0,0,,False,municipality::baarle-nassau,Baarle-Nassau,,municipality_polygon
1724,Bergeijk,tcm:106-353565-1024,4,/regioinformatie/gemeente/bergeijk/,bergeijk,POINT (5.340097105194516 51.31015114918561),5.340097105194516,51.31015114918561,,,,0,0,0,0,0,0,0,0,0,0,0,0,0,0,,False,municipality::bergeijk,Bergeijk,,municipality_polygon
0748,Bergen op Zoom,tcm:106-353566-1024,4,/regioinformatie/gemeente/bergen-op-zoom/,bergen op zoom,POINT (4.2882107983609465 51.503324092021295),4.2882107983609465,51.503324092021295,,,,0,0,0,0,0,0,0,0,0,0,0,0,0,0,,False,municipality::bergen-op-zoom,Bergen op Zoom,,municipality_polygon
1721,Bernheze,tcm:106-353567-1024,4,/regioinformatie/gemeente/bernheze/,bernheze,POINT (5.520610318557197 51.684631539246446),5.520610318557197,51.684631539246446,,,,0,0,0,0,0,0,0,0,0,0,0,0,0,0,,False,municipality::bernheze,Bernheze,,municipality_polygon
0753,Best,tcm:106-353568-1024,4,/regioinformatie/gemeente/best/,best,POINT (5.396635342719205 51.51365507503558),5.396635342719205,51.51365507503558,,,,0,0,0,0,0,0,0,0,0,0,0,0,0,0,,False,municipality::best,Best,,municipality_polygon
1728,Bladel,tcm:106-353569-1024,4,/regioinformatie/gemeente/bladel/,bladel,POINT (5.2387598332861325 51.37232767698973),5.2387598332861325,51.37232767698973,,,,0,0,0,0,0,0,0,0,0,0,0,0,0,0,,False,municipality::bladel,Bladel,,municipality_polygon
0755,Boekel,tcm:106-353570-1024,4,/regioinformatie/gemeente/boekel/,boekel,POINT (5.693863059618892 51.60638664975383),5.693863059618892,51.60638664975383,,,,0,0,0,0,0,0,0,0,0,0,0,0,0,0,,False,municipality::boekel,Boekel,,municipality_polygon
0756,Boxmeer,tcm:106-353571-1024,4,/regioinformatie/gemeente/boxmeer/,boxmeer,POINT (5.94889457722358 51.62141880719321),5.94889457722358,51.62141880719321,,,,0,0,0,0,0,0,0,0,0,0,0,0,0,0,,False,municipality::boxmeer,Boxmeer,,municipality_polygon
0757,Boxtel,tcm:106-353572-1024,4,/regioinformatie/gemeente/boxtel/,boxtel,POINT (5.326612996858513 51.578305461254764),5.326612996858513,51.578305461254764,,,,0,0,0,0,0,0,0,0,0,0,0,0,0,0,,False,municipality::boxtel,Boxtel,,municipality_polygon
0758,Breda,tcm:106-353573-1024,4,/regioinformatie/gemeente/breda/,breda,POINT (4.7615037195256775 51.58514318597226),4.7615037195256775,51.58514318597226,,,,0,0,0,0,0,0,0,0,0,0,0,0,0,0,,False,municipality::breda,Breda,,municipality_polygon
1706,Cranendonck,tcm:106-353574-1024,4,/regioinformatie/gemeente/cranendonck/,cranendonck,POINT (5.5963039809906645 51.2862345200374),5.5963039809906645,51.2862345200374,,,,0,0,0,0,0,0,0,0,0,0,0,0,0,0,,False,municipality::cranendonck,Cranendonck,,municipality_polygon
1684,Cuijk,tcm:106-353575-1024,4,/regioinformatie/gemeente/cuijk/,cuijk,POINT (5.851427392121901 51.71817979584823),5.851427392121901,51.71817979584823,,,,0,0,0,0,0,0,0,0,0,0,0,0,0,0,,False,municipality::cuijk,Cuijk,,municipality_polygon
0762,Deurne,tcm:106-353576-1024,4,/regioinformatie/gemeente/deurne/,deurne,POINT (5.826903011316322 51.43636467632211),5.826903011316322,51.43636467632211,,,,0,0,0,0,0,0,0,0,0,0,0,0,0,0,,False,municipality::deurne,Deurne,,municipality_polygon
0766,Dongen,tcm:106-353577-1024,4,/regioinformatie/gemeente/dongen/,dongen,POINT (4.9554909697093406 51.63570717326654),4.9554909697093406,51.63570717326654,,,,0,0,0,0,0,0,0,0,0,0,0,0,0,0,,False,municipality::dongen,Dongen,,municipality_polygon
1719,Drimmelen,tcm:106-353578-1024,4,/regioinformatie/gemeente/drimmelen/,drimmelen,POINT (4.758573093829226 51.70012473704246),4.758573093829226,51.70012473704246,,,,0,0,0,0,0,0,0,0,0,0,0,0,0,0,,False,municipality::drimmelen,Drimmelen,,municipality_polygon
0770,Eersel,tcm:106-353579-1024,4,/regioinformatie/gemeente/eersel/,eersel,POINT (5.314572707952659 51.39642785721642),5.314572707952659,51.39642785721642,,,,0,0,0,0,0,0,0,0,0,0,0,0,0,0,,False,municipality::eersel,Eersel,,municipality_polygon
0772,Eindhoven,tcm:106-353580-1024,4,/regioinformatie/gemeente/eindhoven/,eindhoven,POINT (5.458848119081465 51.44991984263797),5.458848119081465,51.44991984263797,,,,0,0,0,0,0,0,0,0,0,0,0,0,0,0,,False,municipality::eindhoven,Eindhoven,,municipality_polygon
0777,Etten-Leur,tcm:106-353581-1024,4,/regioinformatie/gemeente/etten-leur/,etten leur,POINT (4.644941820524895 51.57835387744918),4.644941820524895,51.57835387744918,,,,0,0,0,0,0,0,0,0,0,0,0,0,0,0,,False,municipality::etten-leur,Etten-Leur,,municipality_polygon
0779,Geertruidenberg,tcm:106-353582-1024,4,/regioinformatie/gemeente/geertruidenberg/,geertruidenberg,POINT (4.881618293682905 51.697048684801985),4.881618293682905,51.697048684801985,,,,0,0,0,0,0,0,0,0,0,0,0,0,0,0,,False,municipality::geertruidenberg,Geertruidenberg,,municipality_polygon
1771,Geldrop-Mierlo,tcm:106-353583-1024,4,/regioinformatie/gemeente/geldrop-mierlo/,geldrop mierlo,POINT (5.587593424060586 51.43125293219792),5.587593424060586,51.43125293219792,,,,0,0,0,0,0,0,0,0,0,0,0,0,0,0,,False,municipality::geldrop-mierlo,Geldrop-Mierlo,,municipality_polygon
1652,Gemert-Bakel,tcm:106-353584-1024,4,/regioinformatie/gemeente/gemert-bakel/,gemert bakel,POINT (5.754354978169782 51.54084143760665),5.754354978169782,51.54084143760665,,,,0,0,0,0,0,0,0,0,0,0,0,0,0,0,,False,municipality::gemert-bakel,Gemert-Bakel,,municipality_polygon
0784,Gilze en Rijen,tcm:106-353585-1024,4,/regioinformatie/gemeente/gilze-en-rijen/,gilze en rijen,POINT (4.918567629163256 51.55958345999355),4.918567629163256,51.55958345999355,,,,0,0,0,0,0,0,0,0,0,0,0,0,0,0,,False,municipality::gilze-en-rijen,Gilze en Rijen,,municipality_polygon
0785,Goirle,tcm:106-353586-1024,4,/regioinformatie/gemeente/goirle/,goirle,POINT (5.031633756482368 51.51159207776726),5.031633756482368,51.51159207776726,,,,0,0,0,0,0,0,0,0,0,0,0,0,0,0,,False,municipality::goirle,Goirle,,municipality_polygon
0786,Grave,tcm:106-353587-1024,4,/regioinformatie/gemeente/grave/,grave,POINT (5.743260997242187 51.7436037471697),5.743260997242187,51.7436037471697,,,,0,0,0,0,0,0,0,0,0,0,0,0,0,0,,False,municipality::grave,Grave,,municipality_polygon
0788,Haaren,tcm:106-353588-1024,4,/regioinformatie/gemeente/haaren/,haaren,POINT (5.217977767176322 51.626019633083004),5.217977767176322,51.626019633083004,,,,0,0,0,0,0,0,0,0,0,0,0,0,0,0,,False,municipality::haaren,Haaren,,municipality_polygon
1655,Halderberge,tcm:106-353589-1024,4,/regioinformatie/gemeente/halderberge/,halderberge,POINT (4.523047109460559 51.59057130273782),4.523047109460559,51.59057130273782,,,,0,0,0,0,0,0,0,0,0,0,0,0,0,0,,False,municipality::halderberge,Halderberge,,municipality_polygon
1658,Heeze-Leende,tcm:106-353590-1024,4,/regioinformatie/gemeente/heeze-leende/,heeze leende,POINT (5.567275716017191 51.36080384960994),5.567275716017191,51.36080384960994,,,,0,0,0,0,0,0,0,0,0,0,0,0,0,0,,False,municipality::heeze-leende,Heeze-Leende,,municipality_polygon
0794,Helmond,tcm:106-353591-1024,4,/regioinformatie/gemeente/helmond/,helmond,POINT (5.6570559720717135 51.476148165164325),5.6570559720717135,51.476148165164325,,,,0,0,0,0,0,0,0,0,0,0,0,0,0,0,,False,municipality::helmond,Helmond,,municipality_polygon
0797,Heusden,tcm:106-353593-1024,4,/regioinformatie/gemeente/heusden/,heusden,POINT (5.1603102475173355 51.69661258657317),5.1603102475173355,51.69661258657317,,,,0,0,0,0,0,0,0,0,0,0,0,0,0,0,,False,municipality::heusden,Heusden,,municipality_polygon
0798,Hilvarenbeek,tcm:106-353594-1024,4,/regioinformatie/gemeente/hilvarenbeek/,hilvarenbeek,POINT (5.145584919717654 51.47949436295964),5.145584919717654,51.47949436295964,,,,0,0,0,0,0,0,0,0,0,0,0,0,0,0,,False,municipality::hilvarenbeek,Hilvarenbeek,,municipality_polygon
1659,Laarbeek,tcm:106-353595-1024,4,/regioinformatie/gemeente/laarbeek/,laarbeek,POINT (5.611905758805727 51.53094870889307),5.611905758805727,51.53094870889307,,,,0,0,0,0,0,0,0,0,0,0,0,0,0,0,,False,municipality::laarbeek,Laarbeek,,municipality_polygon
1685,Landerd,tcm:106-353596-1024,4,/regioinformatie/gemeente/landerd/,landerd,POINT (5.659041149339706 51.71673331584441),5.659041149339706,51.71673331584441,,,,0,0,0,0,0,0,0,0,0,0,0,0,0,0,,False,municipality::landerd,Landerd,,municipality_polygon
0809,Loon op Zand,tcm:106-353597-1024,4,/regioinformatie/gemeente/loon-op-zand/,loon op zand,POINT (5.047493286399592 51.64056531969895),5.047493286399592,51.64056531969895,Loon op Zand,Noord-Brabant,,3,0,0,0,0,0,0,0,0,0,0,0,1,1,Onbekend | Karper,False,municipality::loon-op-zand,Loon op Zand,Noord-Brabant,municipality_polygon
1671,Maasdonk,tcm:106-353598-1024,4,,maasdonk,POINT (5.451684642808415 51.7299225293818),5.451684642808415,51.7299225293818,,,,0,0,0,0,0,0,0,0,0,0,0,0,0,0,,False,municipality::maasdonk,Maasdonk,,municipality_polygon
0815,Mill en Sint Hubert,tcm:106-353599-1024,4,/regioinformatie/gemeente/mill-en-st-hubert/,mill en sint hubert,POINT (5.768051713579757 51.68584942618659),5.768051713579757,51.68584942618659,,,,0,0,0,0,0,0,0,0,0,0,0,0,0,0,,False,municipality::mill-en-sint-hubert,Mill en Sint Hubert,,municipality_polygon
1709,Moerdijk,tcm:106-353600-1024,4,/regioinformatie/gemeente/moerdijk/,moerdijk,POINT (4.535250866108807 51.66266619522171),4.535250866108807,51.66266619522171,,,,0,0,0,0,0,0,0,0,0,0,0,0,0,0,,False,municipality::moerdijk,Moerdijk,,municipality_polygon
0820,"Nuenen, Gerwen en Nederwetten",tcm:106-353601-1024,4,/regioinformatie/gemeente/nuenen-ca/,nuenen gerwen en nederwetten,POINT (5.549453344003241 51.478478193307076),5.549453344003241,51.478478193307076,,,,0,0,0,0,0,0,0,0,0,0,0,0,0,0,,False,municipality::nuenen-gerwen-en-nederwetten,"Nuenen, Gerwen en Nederwetten",,municipality_polygon
0823,Oirschot,tcm:106-353602-1024,4,/regioinformatie/gemeente/oirschot/,oirschot,POINT (5.2898319496185655 51.492632268748146),5.2898319496185655,51.492632268748146,,,,0,0,0,0,0,0,0,0,0,0,0,0,0,0,,False,municipality::oirschot,Oirschot,,municipality_polygon
0824,Oisterwijk,tcm:106-353603-1024,4,/regioinformatie/gemeente/oisterwijk/,oisterwijk,POINT (5.197633637278868 51.55203600977901),5.197633637278868,51.55203600977901,,,,0,0,0,0,0,0,0,0,0,0,0,0,0,0,,False,municipality::oisterwijk,Oisterwijk,,municipality_polygon
0826,Oosterhout,tcm:106-353604-1024,4,/regioinformatie/gemeente/oosterhout/,oosterhout,POINT (4.863905754299803 51.637833863251366),4.863905754299803,51.637833863251366,,,,0,0,0,0,0,0,0,0,0,0,0,0,0,0,,False,municipality::oosterhout,Oosterhout,,municipality_polygon
0828,Oss,tcm:106-353605-1024,4,/regioinformatie/gemeente/oss/,oss,POINT (5.530527875878513 51.783936252867925),5.530527875878513,51.783936252867925,,,,0,0,0,0,0,0,0,0,0,0,0,0,0,0,,False,municipality::oss,Oss,,municipality_polygon
1667,Reusel-De Mierden,tcm:106-353606-1024,4,/regioinformatie/gemeente/reusel-de-mierden/,reusel de mierden,POINT (5.147924373081938 51.37809553745194),5.147924373081938,51.37809553745194,,,,0,0,0,0,0,0,0,0,0,0,0,0,0,0,,False,municipality::reusel-de-mierden,Reusel-De Mierden,,municipality_polygon
1674,Roosendaal,tcm:106-353607-1024,4,/regioinformatie/gemeente/roosendaal/,roosendaal,POINT (4.424439047055572 51.51309800651006),4.424439047055572,51.51309800651006,,,,0,0,0,0,0,0,0,0,0,0,0,0,0,0,,False,municipality::roosendaal,Roosendaal,,municipality_polygon
0840,Rucphen,tcm:106-353608-1024,4,/regioinformatie/gemeente/rucphen/,rucphen,POINT (4.558616760431182 51.52271255789304),4.558616760431182,51.52271255789304,,,,0,0,0,0,0,0,0,0,0,0,0,0,0,0,,False,municipality::rucphen,Rucphen,,municipality_polygon
0844,Schijndel,tcm:106-353609-1024,4,/regioinformatie/gemeente/schijndel/,schijndel,POINT (5.436461549742861 51.62202775709445),5.436461549742861,51.62202775709445,,,,0,0,0,0,0,0,0,0,0,0,0,0,0,0,,False,municipality::schijndel,Schijndel,,municipality_polygon
0796,'s-Hertogenbosch,tcm:106-353592-1024,4,/regioinformatie/gemeente/s-hertogenbosch/,s hertogenbosch,POINT (5.325137259229141 51.714935056579435),5.325137259229141,51.714935056579435,'s-Hertogenbosch,Noord-Brabant,,5,0,0,0,0,0,0,0,0,0,0,0,0,1,Onbekend | Roofvis,False,municipality::s-hertogenbosch,'s-Hertogenbosch,Noord-Brabant,municipality_polygon
1702,Sint Anthonis,tcm:106-353610-1024,4,/regioinformatie/gemeente/sint-anthonis/,sint anthonis,POINT (5.842122549209004 51.61735287710378),5.842122549209004,51.61735287710378,,,,0,0,0,0,0,0,0,0,0,0,0,0,0,0,,False,municipality::sint-anthonis,Sint Anthonis,,municipality_polygon
0845,Sint-Michielsgestel,tcm:106-353611-1024,4,/regioinformatie/gemeente/sint-michielsgestel/,sint michielsgestel,POINT (5.378079976018922 51.65687766835518),5.378079976018922,51.65687766835518,,,,0,0,0,0,0,0,0,0,0,0,0,0,0,0,,False,municipality::sint-michielsgestel,Sint-Michielsgestel,,municipality_polygon
0846,Sint-Oedenrode,tcm:106-353612-1024,4,/regioinformatie/gemeente/sint-oedenrode/,sint oedenrode,POINT (5.468653396194068 51.56373727655191),5.468653396194068,51.56373727655191,,,,0,0,0,0,0,0,0,0,0,0,0,0,0,0,,False,municipality::sint-oedenrode,Sint-Oedenrode,,municipality_polygon
0847,Someren,tcm:106-353613-1024,4,/regioinformatie/gemeente/someren/,someren,POINT (5.69134076940004 51.37878390966223),5.69134076940004,51.37878390966223,,,,0,0,0,0,0,0,0,0,0,0,0,0,0,0,,False,municipality::someren,Someren,,municipality_polygon
0848,Son en Breugel,tcm:106-353614-1024,4,/regioinformatie/gemeente/son-en-breugel/,son en breugel,POINT (5.4826050353047835 51.51640650152942),5.4826050353047835,51.51640650152942,Son en Breugel,Noord-Brabant,,12,0,0,0,0,0,0,0,0,0,0,0,0,1,Onbekend,False,municipality::son-en-breugel,Son en Breugel,Noord-Brabant,municipality_polygon
0851,Steenbergen,tcm:106-353615-1024,4,/regioinformatie/gemeente/steenbergen/,steenbergen,POINT (4.3237521149886895 51.59983006400313),4.3237521149886895,51.59983006400313,,,,0,0,0,0,0,0,0,0,0,0,0,0,0,0,,False,municipality::steenbergen,Steenbergen,,municipality_polygon
0855,Tilburg,tcm:106-353616-1024,4,/regioinformatie/gemeente/tilburg/,tilburg,POINT (5.06842774271085 51.57960657952908),5.06842774271085,51.57960657952908,,,,0,0,0,0,0,0,0,0,0,0,0,0,0,0,,False,municipality::tilburg,Tilburg,,municipality_polygon
0856,Uden,tcm:106-353617-1024,4,/regioinformatie/gemeente/uden/,uden,POINT (5.651773240924615 51.65537642271865),5.651773240924615,51.65537642271865,,,,0,0,0,0,0,0,0,0,0,0,0,0,0,0,,False,municipality::uden,Uden,,municipality_polygon
0858,Valkenswaard,tcm:106-353618-1024,4,/regioinformatie/gemeente/valkenswaard/,valkenswaard,POINT (5.449245041575039 51.32386061271902),5.449245041575039,51.32386061271902,,,,0,0,0,0,0,0,0,0,0,0,0,0,0,0,,False,municipality::valkenswaard,Valkenswaard,,municipality_polygon
0860,Veghel,tcm:106-353619-1024,4,/regioinformatie/gemeente/veghel/,veghel,POINT (5.574057663478224 51.59999575989723),5.574057663478224,51.59999575989723,,,,0,0,0,0,0,0,0,0,0,0,0,0,0,0,,False,municipality::veghel,Veghel,,municipality_polygon
0861,Veldhoven,tcm:106-353620-1024,4,/regioinformatie/gemeente/veldhoven/,veldhoven,POINT (5.383152559982227 51.41188142636931),5.383152559982227,51.41188142636931,,,,0,0,0,0,0,0,0,0,0,0,0,0,0,0,,False,municipality::veldhoven,Veldhoven,,municipality_polygon
0865,Vught,tcm:106-353621-1024,4,/regioinformatie/gemeente/vught/,vught,POINT (5.2685687949638105 51.65536509970756),5.2685687949638105,51.65536509970756,,,,0,0,0,0,0,0,0,0,0,0,0,0,0,0,,False,municipality::vught,Vught,,municipality_polygon
0866,Waalre,tcm:106-353622-1024,4,/regioinformatie/gemeente/waalre/,waalre,POINT (5.464866215519092 51.38735372525106),5.464866215519092,51.38735372525106,,,,0,0,0,0,0,0,0,0,0,0,0,0,0,0,,False,municipality::waalre,Waalre,,municipality_polygon
0867,Waalwijk,tcm:106-353623-1024,4,/regioinformatie/gemeente/waalwijk/,waalwijk,POINT (5.012087470554624 51.692311024495325),5.012087470554624,51.692311024495325,,,,0,0,0,0,0,0,0,0,0,0,0,0,0,0,,False,municipality::waalwijk,Waalwijk,,municipality_polygon
0870,Werkendam,tcm:106-353624-1024,4,/regioinformatie/gemeente/werkendam/,werkendam,POINT (4.873078746579459 51.766929727888716),4.873078746579459,51.766929727888716,,,,0,0,0,0,0,0,0,0,0,0,0,0,0,0,,False,municipality::werkendam,Werkendam,,municipality_polygon
0873,Woensdrecht,tcm:106-353625-1024,4,/regioinformatie/gemeente/woensdrecht/,woensdrecht,POINT (4.3422952442431475 51.40832324662454),4.3422952442431475,51.40832324662454,,,,0,0,0,0,0,0,0,0,0,0,0,0,0,0,,False,municipality::woensdrecht,Woensdrecht,,municipality_polygon
0874,Woudrichem,tcm:106-353626-1024,4,/regioinformatie/gemeente/woudrichem/,woudrichem,POINT (4.994915878450344 51.782664163913594),4.994915878450344,51.782664163913594,,,,0,0,0,0,0,0,0,0,0,0,0,0,0,0,,False,municipality::woudrichem,Woudrichem,,municipality_polygon
0879,Zundert,tcm:106-353627-1024,4,/regioinformatie/gemeente/zundert/,zundert,POINT (4.642539662697222 51.47977880054888),4.642539662697222,51.47977880054888,,,,0,0,0,0,0,0,0,0,0,0,0,0,0,0,,False,municipality::zundert,Zundert,,municipality_polygon
0358,Aalsmeer,tcm:106-353629-1024,4,/regioinformatie/gemeente/aalsmeer/,aalsmeer,POINT (4.755263986267576 52.25776344691345),4.755263986267576,52.25776344691345,Aalsmeer,Noord-Holland,midwest-west,16,0,16,0,0,16,0,0,0,0,0,16,1,1,Roofvis | Onbekend,True,municipality::aalsmeer,Aalsmeer,Noord-Holland,municipality_polygon
0361,Alkmaar,tcm:106-353630-1024,4,/regioinformatie/gemeente/alkmaar/,alkmaar,POINT (4.803280296068833 52.60173766119733),4.803280296068833,52.60173766119733,Alkmaar,Noord-Holland,,16,0,16,0,0,15,0,0,15,0,0,15,1,2,Onbekend | Roofvis,False,municipality::alkmaar,Alkmaar,Noord-Holland,municipality_polygon
0362,Amstelveen,tcm:106-353631-1024,4,/regioinformatie/gemeente/amstelveen/,amstelveen,POINT (4.851315487050379 52.28929547451238),4.851315487050379,52.28929547451238,Amstelveen,Noord-Holland,midwest-west,30,0,30,0,0,0,0,0,0,0,0,0,0,4,Onbekend | Roofvis | Karper,True,municipality::amstelveen,Amstelveen,Noord-Holland,municipality_polygon
0363,Amsterdam,tcm:106-353632-1024,4,/regioinformatie/gemeente/amsterdam/,amsterdam,POINT (4.90451071311385 52.37343410058806),4.90451071311385,52.37343410058806,,,midwest-west,0,0,0,0,0,0,0,0,0,0,0,0,0,0,,True,municipality::amsterdam,Amsterdam,,municipality_polygon
0370,Beemster,tcm:106-353633-1024,4,/regioinformatie/gemeente/beemster/,beemster,POINT (4.916959828612235 52.557592101349634),4.916959828612235,52.557592101349634,Beemster,Noord-Holland,,7,0,7,0,0,0,0,0,0,0,0,0,0,3,Onbekend,False,municipality::beemster,Beemster,Noord-Holland,municipality_polygon
0373,Bergen (NH),tcm:106-353634-1024,4,/regioinformatie/gemeente/bergen-nh/,bergen,POINT (4.661142969287827 52.66314490786992),4.661142969287827,52.66314490786992,,,,0,0,0,0,0,0,0,0,0,0,0,0,0,0,,False,municipality::bergen,Bergen (NH),,municipality_polygon
0375,Beverwijk,tcm:106-353635-1024,4,/regioinformatie/gemeente/beverwijk/,beverwijk,POINT (4.648622340929313 52.48488328404904),4.648622340929313,52.48488328404904,,,,0,0,0,0,0,0,0,0,0,0,0,0,0,0,,False,municipality::beverwijk,Beverwijk,,municipality_polygon
0376,Blaricum,tcm:106-353636-1024,4,/regioinformatie/gemeente/blaricum/,blaricum,POINT (5.273814135065724 52.28277377578142),5.273814135065724,52.28277377578142,,,midwest-west,0,0,0,0,0,0,0,0,0,0,0,0,0,0,,True,municipality::blaricum,Blaricum,,municipality_polygon
0377,Bloemendaal,tcm:106-353637-1024,4,/regioinformatie/gemeente/bloemendaal/,bloemendaal,POINT (4.581758278851521 52.385540287141104),4.581758278851521,52.385540287141104,Bloemendaal,Noord-Holland,midwest-west,6,0,6,0,0,6,0,0,6,0,0,0,2,1,Onbekend | Roofvis,True,municipality::bloemendaal,Bloemendaal,Noord-Holland,municipality_polygon
0381,Bussum,tcm:106-353638-1024,4,/regioinformatie/gemeente/bussum/,bussum,POINT (5.164705244374123 52.27006068585438),5.164705244374123,52.27006068585438,,,,0,0,0,0,0,0,0,0,0,0,0,0,0,0,,False,municipality::bussum,Bussum,,municipality_polygon
0383,Castricum,tcm:106-353639-1024,4,/regioinformatie/gemeente/castricum/,castricum,POINT (4.675471096778614 52.556610867534914),4.675471096778614,52.556610867534914,Castricum,Noord-Holland,,21,0,21,0,0,0,0,0,0,0,0,0,3,3,Onbekend | Karper,False,municipality::castricum,Castricum,Noord-Holland,municipality_polygon
0400,Den Helder,tcm:106-353640-1024,4,/regioinformatie/gemeente/den-helder/,den helder,POINT (4.785282031535409 52.93999303605567),4.785282031535409,52.93999303605567,Den Helder,Noord-Holland,,66,0,66,0,0,11,0,0,11,0,11,0,1,4,Onbekend | Roofvis,False,municipality::den-helder,Den Helder,Noord-Holland,municipality_polygon
0384,Diemen,tcm:106-353641-1024,4,/regioinformatie/gemeente/diemen/,diemen,POINT (4.990447541053948 52.33724063222618),4.990447541053948,52.33724063222618,,,midwest-west,0,0,0,0,0,0,0,0,0,0,0,0,0,0,,True,municipality::diemen,Diemen,,municipality_polygon
0498,Drechterland,tcm:106-353642-1024,4,/regioinformatie/gemeente/drechterland/,drechterland,POINT (5.173320336715026 52.657081766017455),5.173320336715026,52.657081766017455,,,,0,0,0,0,0,0,0,0,0,0,0,0,0,0,,False,municipality::drechterland,Drechterland,,municipality_polygon
0385,Edam-Volendam,tcm:106-353643-1024,4,/regioinformatie/gemeente/edam-volendam/,edam volendam,POINT (5.057096955760901 52.50676279780106),5.057096955760901,52.50676279780106,Edam-Volendam,Noord-Holland,,3,0,3,0,0,0,0,0,0,0,0,0,2,1,Onbekend,False,municipality::edam-volendam,Edam-Volendam,Noord-Holland,municipality_polygon
0388,Enkhuizen,tcm:106-353644-1024,4,/regioinformatie/gemeente/enkhuizen/,enkhuizen,POINT (5.303308291656959 52.75498934065443),5.303308291656959,52.75498934065443,,,,0,0,0,0,0,0,0,0,0,0,0,0,0,0,,False,municipality::enkhuizen,Enkhuizen,,municipality_polygon
0392,Haarlem,tcm:106-353646-1024,4,/regioinformatie/gemeente/haarlem/,haarlem,POINT (4.647607159834112 52.383477288167036),4.647607159834112,52.383477288167036,Haarlem,Noord-Holland,midwest-west,29,0,29,0,0,29,0,29,0,0,0,0,1,1,Onbekend,True,municipality::haarlem,Haarlem,Noord-Holland,municipality_polygon
0393,Haarlemmerliede en Spaarnwoude,tcm:106-353647-1024,4,/regioinformatie/gemeente/haarlemmerliede-en-spaarnwoude/,haarlemmerliede en spaarnwoude,POINT (4.712449422640119 52.40291928002495),4.712449422640119,52.40291928002495,,,,0,0,0,0,0,0,0,0,0,0,0,0,0,0,,False,municipality::haarlemmerliede-en-spaarnwoude,Haarlemmerliede en Spaarnwoude,,municipality_polygon
0394,Haarlemmermeer,tcm:106-353648-1024,4,/regioinformatie/gemeente/haarlemmermeer/,haarlemmermeer,POINT (4.683466458738036 52.29707006996479),4.683466458738036,52.29707006996479,,,midwest-west,0,0,0,0,0,0,0,0,0,0,0,0,0,0,,True,municipality::haarlemmermeer,Haarlemmermeer,,municipality_polygon
0396,Heemskerk,tcm:106-353649-1024,4,/regioinformatie/gemeente/heemskerk/,heemskerk,POINT (4.640445083348473 52.51249244243712),4.640445083348473,52.51249244243712,,,,0,0,0,0,0,0,0,0,0,0,0,0,0,0,,False,municipality::heemskerk,Heemskerk,,municipality_polygon
0397,Heemstede,tcm:106-353650-1024,4,/regioinformatie/gemeente/heemstede/,heemstede,POINT (4.615779635124933 52.34473927525748),4.615779635124933,52.34473927525748,,,midwest-west,0,0,0,0,0,0,0,0,0,0,0,0,0,0,,True,municipality::heemstede,Heemstede,,municipality_polygon
0398,Heerhugowaard,tcm:106-353651-1024,4,/regioinformatie/gemeente/heerhugowaard/,heerhugowaard,POINT (4.844405691931658 52.67606575721306),4.844405691931658,52.67606575721306,Heerhugowaard,Noord-Holland,,21,0,21,0,0,0,0,0,0,0,0,0,0,3,Onbekend | Roofvis,False,municipality::heerhugowaard,Heerhugowaard,Noord-Holland,municipality_polygon
0399,Heiloo,tcm:106-353652-1024,4,/regioinformatie/gemeente/heiloo/,heiloo,POINT (4.708550395955084 52.59982544506467),4.708550395955084,52.59982544506467,,,,0,0,0,0,0,0,0,0,0,0,0,0,0,0,,False,municipality::heiloo,Heiloo,,municipality_polygon
0402,Hilversum,tcm:106-353653-1024,4,/regioinformatie/gemeente/hilversum/,hilversum,POINT (5.167923993466763 52.22307253114134),5.167923993466763,52.22307253114134,Hilversum,Noord-Holland,midwest-west,7,0,7,0,0,0,0,0,0,0,0,0,1,1,Roofvis | Onbekend,True,municipality::hilversum,Hilversum,Noord-Holland,municipality_polygon
1911,Hollands Kroon,tcm:106-353654-1024,4,/regioinformatie/gemeente/hollands-kroon/,hollands kroon,POINT (4.992815245440219 52.885762526862585),4.992815245440219,52.885762526862585,Hollands Kroon,Noord-Holland,,32,0,0,0,0,0,0,0,0,0,0,0,0,5,Onbekend | Karper | Roofvis,False,municipality::hollands-kroon,Hollands Kroon,Noord-Holland,municipality_polygon
0405,Hoorn,tcm:106-353655-1024,4,/regioinformatie/gemeente/hoorn/,hoorn,POINT (5.072027323695148 52.629847153861405),5.072027323695148,52.629847153861405,,,,0,0,0,0,0,0,0,0,0,0,0,0,0,0,,False,municipality::hoorn,Hoorn,,municipality_polygon
0406,Huizen,tcm:106-353656-1024,4,/regioinformatie/gemeente/huizen/,huizen,POINT (5.2419938163814 52.29856075426167),5.2419938163814,52.29856075426167,,,midwest-west,0,0,0,0,0,0,0,0,0,0,0,0,0,0,,True,municipality::huizen,Huizen,,municipality_polygon
1598,Koggenland,tcm:106-353657-1024,4,/regioinformatie/gemeente/koggenland/,koggenland,POINT (4.9488832491517725 52.64435838769927),4.9488832491517725,52.64435838769927,Koggenland,Noord-Holland,,23,0,23,0,0,0,0,0,0,0,0,0,4,5,Roofvis | Onbekend,False,municipality::koggenland,Koggenland,Noord-Holland,municipality_polygon
0415,Landsmeer,tcm:106-353658-1024,4,/regioinformatie/gemeente/landsmeer/,landsmeer,POINT (4.924372239034491 52.45071877979595),4.924372239034491,52.45071877979595,Landsmeer,Noord-Holland,,4,0,4,0,0,0,0,0,0,0,0,0,0,1,Onbekend,False,municipality::landsmeer,Landsmeer,Noord-Holland,municipality_polygon
0416,Langedijk,tcm:106-353659-1024,4,/regioinformatie/gemeente/langedijk/,langedijk,POINT (4.789267140170167 52.6913555144394),4.789267140170167,52.6913555144394,,,,0,0,0,0,0,0,0,0,0,0,0,0,0,0,,False,municipality::langedijk,Langedijk,,municipality_polygon
0417,Laren,tcm:106-353660-1024,4,/regioinformatie/gemeente/laren/,laren,POINT (5.21705859736427 52.24709399779295),5.21705859736427,52.24709399779295,,,midwest-west,0,0,0,0,0,0,0,0,0,0,0,0,0,0,,True,municipality::laren,Laren,,municipality_polygon
0420,Medemblik,tcm:106-353661-1024,4,/regioinformatie/gemeente/medemblik/,medemblik,POINT (5.144016870292442 52.77017142607059),5.144016870292442,52.77017142607059,Medemblik,Noord-Holland,,5,0,5,0,0,0,0,0,0,0,0,0,2,2,Onbekend,False,municipality::medemblik,Medemblik,Noord-Holland,municipality_polygon
0424,Muiden,tcm:106-353662-1024,4,/regioinformatie/gemeente/muiden/,muiden,POINT (5.073689100491791 52.342502685616644),5.073689100491791,52.342502685616644,,,,0,0,0,0,0,0,0,0,0,0,0,0,0,0,,False,municipality::muiden,Muiden,,municipality_polygon
0425,Naarden,tcm:106-353663-1024,4,/regioinformatie/gemeente/naarden/,naarden,POINT (5.161907988369668 52.30296231151545),5.161907988369668,52.30296231151545,,,,0,0,0,0,0,0,0,0,0,0,0,0,0,0,,False,municipality::naarden,Naarden,,municipality_polygon
0431,Oostzaan,tcm:106-353664-1024,4,/regioinformatie/gemeente/oostzaan/,oostzaan,POINT (4.876065265582944 52.451730211099466),4.876065265582944,52.451730211099466,,,,0,0,0,0,0,0,0,0,0,0,0,0,0,0,,False,municipality::oostzaan,Oostzaan,,municipality_polygon
0432,Opmeer,tcm:106-353665-1024,4,/regioinformatie/gemeente/opmeer/,opmeer,POINT (4.953378015426334 52.71531661695432),4.953378015426334,52.71531661695432,Opmeer,Noord-Holland,,6,0,6,0,0,0,0,0,0,0,0,0,3,2,Roofvis | Onbekend,False,municipality::opmeer,Opmeer,Noord-Holland,municipality_polygon
0437,Ouder-Amstel,tcm:106-353666-1024,4,/regioinformatie/gemeente/ouder-amstel/,ouder amstel,POINT (4.913409939197742 52.28931893371782),4.913409939197742,52.28931893371782,,,midwest-west,0,0,0,0,0,0,0,0,0,0,0,0,0,0,,True,municipality::ouder-amstel,Ouder-Amstel,,municipality_polygon
0439,Purmerend,tcm:106-353667-1024,4,/regioinformatie/gemeente/purmerend/,purmerend,POINT (4.970983601876421 52.50217018055605),4.970983601876421,52.50217018055605,Purmerend,Noord-Holland,,5,0,5,0,0,0,0,0,0,0,0,0,1,2,Onbekend | Roofvis,False,municipality::purmerend,Purmerend,Noord-Holland,municipality_polygon
0441,Schagen,tcm:106-353668-1024,4,/regioinformatie/gemeente/schagen/,schagen,POINT (4.742251933112073 52.78742326370605),4.742251933112073,52.78742326370605,Schagen,Noord-Holland,,35,0,35,0,0,0,0,0,0,0,0,0,5,3,Onbekend | Karper | Roofvis,False,municipality::schagen,Schagen,Noord-Holland,municipality_polygon
0532,Stede Broec,tcm:106-353670-1024,4,/regioinformatie/gemeente/stede-broec/,stede broec,POINT (5.226614280734706 52.70002813958928),5.226614280734706,52.70002813958928,Stede Broec,Noord-Holland,,31,0,31,0,0,0,0,0,0,0,0,0,0,4,Onbekend | Karper | Roofvis,False,municipality::stede-broec,Stede Broec,Noord-Holland,municipality_polygon
0448,Texel,tcm:106-353671-1024,4,/regioinformatie/gemeente/texel/,texel,POINT (4.873788722498192 53.0791176931018),4.873788722498192,53.0791176931018,,,,0,0,0,0,0,0,0,0,0,0,0,0,0,0,,False,municipality::texel,Texel,,municipality_polygon
0450,Uitgeest,tcm:106-353672-1024,4,/regioinformatie/gemeente/uitgeest/,uitgeest,POINT (4.728590570950896 52.5232226797032),4.728590570950896,52.5232226797032,,,,0,0,0,0,0,0,0,0,0,0,0,0,0,0,,False,municipality::uitgeest,Uitgeest,,municipality_polygon
0451,Uithoorn,tcm:106-353673-1024,4,/regioinformatie/gemeente/uithoorn/,uithoorn,POINT (4.790898494766347 52.2369259498801),4.790898494766347,52.2369259498801,Uithoorn,Noord-Holland,midwest-west,5,0,5,0,0,0,0,0,0,0,0,0,0,3,Onbekend,True,municipality::uithoorn,Uithoorn,Noord-Holland,municipality_polygon
0453,Velsen,tcm:106-353674-1024,4,/regioinformatie/gemeente/velsen/,velsen,POINT (4.613409951153743 52.45294823214002),4.613409951153743,52.45294823214002,,,midwest-west,0,0,0,0,0,0,0,0,0,0,0,0,0,0,,True,municipality::velsen,Velsen,,municipality_polygon
0852,Waterland,tcm:106-353675-1024,4,/regioinformatie/gemeente/waterland/,waterland,POINT (5.063318709936461 52.44893340567481),5.063318709936461,52.44893340567481,,,,0,0,0,0,0,0,0,0,0,0,0,0,0,0,,False,municipality::waterland,Waterland,,municipality_polygon
0457,Weesp,tcm:106-353676-1024,4,/regioinformatie/gemeente/weesp/,weesp,POINT (5.060388894237936 52.300904062823555),5.060388894237936,52.300904062823555,,,,0,0,0,0,0,0,0,0,0,0,0,0,0,0,,False,municipality::weesp,Weesp,,municipality_polygon
1696,Wijdemeren,tcm:106-353677-1024,4,/regioinformatie/gemeente/wijdemeren/,wijdemeren,POINT (5.084832508983059 52.2262250528049),5.084832508983059,52.2262250528049,Wijdemeren,Noord-Holland,midwest-west,112,0,112,0,0,0,0,0,0,0,0,0,1,6,Onbekend | Roofvis | Karper | Zoutwater,True,municipality::wijdemeren,Wijdemeren,Noord-Holland,municipality_polygon
0880,Wormerland,tcm:106-353678-1024,4,/regioinformatie/gemeente/wormerland/,wormerland,POINT (4.855269355401319 52.50207548016839),4.855269355401319,52.50207548016839,,,,0,0,0,0,0,0,0,0,0,0,0,0,0,0,,False,municipality::wormerland,Wormerland,,municipality_polygon
0479,Zaanstad,tcm:106-353679-1024,4,/regioinformatie/gemeente/zaanstad/,zaanstad,POINT (4.77327470448667 52.46281675416348),4.77327470448667,52.46281675416348,,,,0,0,0,0,0,0,0,0,0,0,0,0,0,0,,False,municipality::zaanstad,Zaanstad,,municipality_polygon
0473,Zandvoort,tcm:106-353680-1024,4,/regioinformatie/gemeente/zandvoort/,zandvoort,POINT (4.535494492024849 52.36005464896605),4.535494492024849,52.36005464896605,,,midwest-west,0,0,0,0,0,0,0,0,0,0,0,0,0,0,,True,municipality::zandvoort,Zandvoort,,municipality_polygon
0478,Zeevang,tcm:106-353681-1024,4,/regioinformatie/gemeente/zeevang/,zeevang,POINT (5.019586187944645 52.56029205419685),5.019586187944645,52.56029205419685,,,,0,0,0,0,0,0,0,0,0,0,0,0,0,0,,False,municipality::zeevang,Zeevang,,municipality_polygon
0141,Almelo,tcm:106-353683-1024,4,/regioinformatie/gemeente/almelo/,almelo,POINT (6.6582196306876815 52.34794358142455),6.6582196306876815,52.34794358142455,,,,0,0,0,0,0,0,0,0,0,0,0,0,0,0,,False,municipality::almelo,Almelo,,municipality_polygon
0147,Borne,tcm:106-353684-1024,4,/regioinformatie/gemeente/borne/,borne,POINT (6.743345532305066 52.31234046464284),6.743345532305066,52.31234046464284,,,,0,0,0,0,0,0,0,0,0,0,0,0,0,0,,False,municipality::borne,Borne,,municipality_polygon
0148,Dalfsen,tcm:106-353685-1024,4,/regioinformatie/gemeente/dalfsen/,dalfsen,POINT (6.276743430385994 52.51474301594422),6.276743430385994,52.51474301594422,,,,0,0,0,0,0,0,0,0,0,0,0,0,0,0,,False,municipality::dalfsen,Dalfsen,,municipality_polygon
0150,Deventer,tcm:106-353686-1024,4,/regioinformatie/gemeente/deventer/,deventer,POINT (6.235951573991939 52.26828649523932),6.235951573991939,52.26828649523932,,,,0,0,0,0,0,0,0,0,0,0,0,0,0,0,,False,municipality::deventer,Deventer,,municipality_polygon
1774,Dinkelland,tcm:106-353687-1024,4,/regioinformatie/gemeente/dinkelland/,dinkelland,POINT (6.914220715590464 52.37303216492941),6.914220715590464,52.37303216492941,,,,0,0,0,0,0,0,0,0,0,0,0,0,0,0,,False,municipality::dinkelland,Dinkelland,,municipality_polygon
0153,Enschede,tcm:106-353688-1024,4,/regioinformatie/gemeente/enschede/,enschede,POINT (6.877681536599709 52.220839896397905),6.877681536599709,52.220839896397905,,,,0,0,0,0,0,0,0,0,0,0,0,0,0,0,,False,municipality::enschede,Enschede,,municipality_polygon
0158,Haaksbergen,tcm:106-353689-1024,4,/regioinformatie/gemeente/haaksbergen/,haaksbergen,POINT (6.755769061790791 52.155605054824676),6.755769061790791,52.155605054824676,,,,0,0,0,0,0,0,0,0,0,0,0,0,0,0,,False,municipality::haaksbergen,Haaksbergen,,municipality_polygon
0160,Hardenberg,tcm:106-353690-1024,4,/regioinformatie/gemeente/hardenberg/,hardenberg,POINT (6.5744383729803975 52.585627760619815),6.5744383729803975,52.585627760619815,,,,0,0,0,0,0,0,0,0,0,0,0,0,0,0,,False,municipality::hardenberg,Hardenberg,,municipality_polygon
0163,Hellendoorn,tcm:106-353691-1024,4,/regioinformatie/gemeente/hellendoorn/,hellendoorn,POINT (6.45090791802826 52.3863382070794),6.45090791802826,52.3863382070794,,,,0,0,0,0,0,0,0,0,0,0,0,0,0,0,,False,municipality::hellendoorn,Hellendoorn,,municipality_polygon
0164,Hengelo (O),tcm:106-353692-1024,4,/regioinformatie/gemeente/hengelo-ov/,hengelo,POINT (6.778102875398926 52.25496134542414),6.778102875398926,52.25496134542414,,,,0,0,0,0,0,0,0,0,0,0,0,0,0,0,,False,municipality::hengelo,Hengelo (O),,municipality_polygon
1735,Hof van Twente,tcm:106-353693-1024,4,/regioinformatie/gemeente/hof-van-twente/,hof van twente,POINT (6.589782968770858 52.236406742217056),6.589782968770858,52.236406742217056,,,,0,0,0,0,0,0,0,0,0,0,0,0,0,0,,False,municipality::hof-van-twente,Hof van Twente,,municipality_polygon
0166,Kampen,tcm:106-353694-1024,4,/regioinformatie/gemeente/kampen/,kampen,POINT (5.923349791395273 52.55816041584481),5.923349791395273,52.55816041584481,,,,0,0,0,0,0,0,0,0,0,0,0,0,0,0,,False,municipality::kampen,Kampen,,municipality_polygon
0168,Losser,tcm:106-353695-1024,4,/regioinformatie/gemeente/losser/,losser,POINT (7.002668655950724 52.302715415881096),7.002668655950724,52.302715415881096,,,,0,0,0,0,0,0,0,0,0,0,0,0,0,0,,False,municipality::losser,Losser,,municipality_polygon
0173,Oldenzaal,tcm:106-353696-1024,4,/regioinformatie/gemeente/oldenzaal/,oldenzaal,POINT (6.910890647225472 52.307680283104055),6.910890647225472,52.307680283104055,,,,0,0,0,0,0,0,0,0,0,0,0,0,0,0,,False,municipality::oldenzaal,Oldenzaal,,municipality_polygon
1773,Olst-Wijhe,tcm:106-353697-1024,4,/regioinformatie/gemeente/olst-wijhe/,olst wijhe,POINT (6.15334368951513 52.36683042194296),6.15334368951513,52.36683042194296,,,,0,0,0,0,0,0,0,0,0,0,0,0,0,0,,False,municipality::olst-wijhe,Olst-Wijhe,,municipality_polygon
0175,Ommen,tcm:106-353698-1024,4,/regioinformatie/gemeente/ommen/,ommen,POINT (6.434844898474015 52.51613365020691),6.434844898474015,52.51613365020691,,,,0,0,0,0,0,0,0,0,0,0,0,0,0,0,,False,municipality::ommen,Ommen,,municipality_polygon
0177,Raalte,tcm:106-353699-1024,4,/regioinformatie/gemeente/raalte/,raalte,POINT (6.2790290631791 52.38798582739156),6.2790290631791,52.38798582739156,,,,0,0,0,0,0,0,0,0,0,0,0,0,0,0,,False,municipality::raalte,Raalte,,municipality_polygon
1742,Rijssen-Holten,tcm:106-353700-1024,4,/regioinformatie/gemeente/rijssen-holten/,rijssen holten,POINT (6.434022004586421 52.29145262297343),6.434022004586421,52.29145262297343,,,,0,0,0,0,0,0,0,0,0,0,0,0,0,0,,False,municipality::rijssen-holten,Rijssen-Holten,,municipality_polygon
0180,Staphorst,tcm:106-353701-1024,4,/regioinformatie/gemeente/staphorst/,staphorst,POINT (6.207297819826559 52.63352526667666),6.207297819826559,52.63352526667666,Staphorst,Overijssel,,134,0,134,0,41,0,0,0,0,0,0,0,1,6,Onbekend | Roofvis | Karper,False,municipality::staphorst,Staphorst,Overijssel,municipality_polygon
1708,Steenwijkerland,tcm:106-353702-1024,4,/regioinformatie/gemeente/steenwijkerland/,steenwijkerland,POINT (6.030024127844583 52.755534363663834),6.030024127844583,52.755534363663834,,,,0,0,0,0,0,0,0,0,0,0,0,0,0,0,,False,municipality::steenwijkerland,Steenwijkerland,,municipality_polygon
0183,Tubbergen,tcm:106-353703-1024,4,/regioinformatie/gemeente/tubbergen/,tubbergen,POINT (6.776646571247086 52.410596650895165),6.776646571247086,52.410596650895165,,,,0,0,0,0,0,0,0,0,0,0,0,0,0,0,,False,municipality::tubbergen,Tubbergen,,municipality_polygon
1700,Twenterand,tcm:106-353704-1024,4,/regioinformatie/gemeente/twenterand/,twenterand,POINT (6.598149170055641 52.44798015354309),6.598149170055641,52.44798015354309,,,,0,0,0,0,0,0,0,0,0,0,0,0,0,0,,False,municipality::twenterand,Twenterand,,municipality_polygon
0189,Wierden,tcm:106-353705-1024,4,/regioinformatie/gemeente/wierden/,wierden,POINT (6.560573579592591 52.34432541073955),6.560573579592591,52.34432541073955,,,,0,0,0,0,0,0,0,0,0,0,0,0,0,0,,False,municipality::wierden,Wierden,,municipality_polygon
1896,Zwartewaterland,tcm:106-353706-1024,4,/regioinformatie/gemeente/zwartewaterland/,zwartewaterland,POINT (6.063759931614649 52.602775769775434),6.063759931614649,52.602775769775434,,,,0,0,0,0,0,0,0,0,0,0,0,0,0,0,,False,municipality::zwartewaterland,Zwartewaterland,,municipality_polygon
0193,Zwolle,tcm:106-353707-1024,4,/regioinformatie/gemeente/zwolle/,zwolle,POINT (6.118482459950562 52.51867622647448),6.118482459950562,52.51867622647448,,,,0,0,0,0,0,0,0,0,0,0,0,0,0,0,,False,municipality::zwolle,Zwolle,,municipality_polygon
0307,Amersfoort,tcm:106-353709-1024,4,/regioinformatie/gemeente/amersfoort/,amersfoort,POINT (5.384549881987636 52.173681858508004),5.384549881987636,52.173681858508004,,,,0,0,0,0,0,0,0,0,0,0,0,0,0,0,,False,municipality::amersfoort,Amersfoort,,municipality_polygon
0308,Baarn,tcm:106-353710-1024,4,/regioinformatie/gemeente/baarn/,baarn,POINT (5.264206543361085 52.20365971286864),5.264206543361085,52.20365971286864,,,midwest-west,0,0,0,0,0,0,0,0,0,0,0,0,0,0,,True,municipality::baarn,Baarn,,municipality_polygon
0312,Bunnik,tcm:106-353711-1024,4,/regioinformatie/gemeente/bunnik/,bunnik,POINT (5.217011320543776 52.040989830521696),5.217011320543776,52.040989830521696,,,midwest-west,0,0,0,0,0,0,0,0,0,0,0,0,0,0,,True,municipality::bunnik,Bunnik,,municipality_polygon
0313,Bunschoten,tcm:106-353712-1024,4,/regioinformatie/gemeente/bunschoten/,bunschoten,POINT (5.358365142253169 52.242652055947055),5.358365142253169,52.242652055947055,Bunschoten,Utrecht,midwest-west,10,0,10,0,0,0,0,0,0,0,0,0,2,3,Onbekend,True,municipality::bunschoten,Bunschoten,Utrecht,municipality_polygon
0310,De Bilt,tcm:106-353713-1024,4,/regioinformatie/gemeente/de-bilt/,de bilt,POINT (5.174135924480201 52.1417190927537),5.174135924480201,52.1417190927537,,,midwest-west,0,0,0,0,0,0,0,0,0,0,0,0,0,0,,True,municipality::de-bilt,De Bilt,,municipality_polygon
0736,De Ronde Venen,tcm:106-353714-1024,4,/regioinformatie/gemeente/de-ronde-venen/,de ronde venen,POINT (4.917469432677917 52.226354059338604),4.917469432677917,52.226354059338604,,,midwest-west,0,0,0,0,0,0,0,0,0,0,0,0,0,0,,True,municipality::de-ronde-venen,De Ronde Venen,,municipality_polygon
0317,Eemnes,tcm:106-353715-1024,4,/regioinformatie/gemeente/eemnes/,eemnes,POINT (5.282756647870888 52.25170618674712),5.282756647870888,52.25170618674712,,,midwest-west,0,0,0,0,0,0,0,0,0,0,0,0,0,0,,True,municipality::eemnes,Eemnes,,municipality_polygon
0321,Houten,tcm:106-353716-1024,4,/regioinformatie/gemeente/houten/,houten,POINT (5.181660929378877 52.00422775936092),5.181660929378877,52.00422775936092,,,midwest-west,0,0,0,0,0,0,0,0,0,0,0,0,0,0,,True,municipality::houten,Houten,,municipality_polygon
0353,IJsselstein,tcm:106-353717-1024,4,/regioinformatie/gemeente/ijsselstein/,ijsselstein,POINT (5.029093582110611 52.02763110212216),5.029093582110611,52.02763110212216,,,midwest-west,0,0,0,0,0,0,0,0,0,0,0,0,0,0,,True,municipality::ijsselstein,IJsselstein,,municipality_polygon
0327,Leusden,tcm:106-353718-1024,4,/regioinformatie/gemeente/leusden/,leusden,POINT (5.416826767958476 52.122280440991936),5.416826767958476,52.122280440991936,Leusden,Utrecht,midwest-west,18,0,18,0,0,0,0,0,0,0,0,0,2,3,Onbekend | Roofvis | Karper,True,municipality::leusden,Leusden,Utrecht,municipality_polygon
0331,Lopik,tcm:106-353719-1024,4,/regioinformatie/gemeente/lopik/,lopik,POINT (4.945517996570699 51.985407010922344),4.945517996570699,51.985407010922344,Lopik,Utrecht,midwest-west,1,0,1,0,0,0,0,0,0,0,0,0,1,1,Onbekend,True,municipality::lopik,Lopik,Utrecht,municipality_polygon
0335,Montfoort,tcm:106-353720-1024,4,/regioinformatie/gemeente/montfoort/,montfoort,POINT (4.944148962765297 52.04757793928495),4.944148962765297,52.04757793928495,Montfoort,Utrecht,midwest-west,7,0,7,0,0,0,0,0,0,0,0,0,1,2,Onbekend | Roofvis,True,municipality::montfoort,Montfoort,Utrecht,municipality_polygon
0356,Nieuwegein,tcm:106-353721-1024,4,/regioinformatie/gemeente/nieuwegein/,nieuwegein,POINT (5.094622009972396 52.030720182991146),5.094622009972396,52.030720182991146,Nieuwegein,Utrecht,midwest-west,12,0,12,8,0,0,0,0,0,0,0,0,1,2,Roofvis | Onbekend | Karper,True,municipality::nieuwegein,Nieuwegein,Utrecht,municipality_polygon
0589,Oudewater,tcm:106-353722-1024,4,/regioinformatie/gemeente/oudewater/,oudewater,POINT (4.864083076473403 52.02745277016525),4.864083076473403,52.02745277016525,Oudewater,Utrecht,midwest-west,1,0,1,0,0,0,0,0,0,0,0,0,1,1,Onbekend,True,municipality::oudewater,Oudewater,Utrecht,municipality_polygon
0339,Renswoude,tcm:106-353723-1024,4,/regioinformatie/gemeente/renswoude/,renswoude,POINT (5.534237690040719 52.06899115145212),5.534237690040719,52.06899115145212,,,midwest-west,0,0,0,0,0,0,0,0,0,0,0,0,0,0,,True,municipality::renswoude,Renswoude,,municipality_polygon
0340,Rhenen,tcm:106-353724-1024,4,/regioinformatie/gemeente/rhenen/,rhenen,POINT (5.5604174765086345 51.980824409729415),5.5604174765086345,51.980824409729415,,,midwest-west,0,0,0,0,0,0,0,0,0,0,0,0,0,0,,True,municipality::rhenen,Rhenen,,municipality_polygon
0342,Soest,tcm:106-353725-1024,4,/regioinformatie/gemeente/soest/,soest,POINT (5.2963190709378045 52.156169525707625),5.2963190709378045,52.156169525707625,Soest,Utrecht,midwest-west,40,0,20,0,0,0,0,0,0,0,0,0,1,4,Onbekend | Karper | Roofvis,True,municipality::soest,Soest,Utrecht,municipality_polygon
1904,Stichtse Vecht,tcm:106-353726-1024,4,/regioinformatie/gemeente/stichtse-vecht/,stichtse vecht,POINT (5.012483689785091 52.177039418439236),5.012483689785091,52.177039418439236,,,midwest-west,0,0,0,0,0,0,0,0,0,0,0,0,0,0,,True,municipality::stichtse-vecht,Stichtse Vecht,,municipality_polygon
0344,Utrecht (Ut),tcm:106-353727-1024,4,/regioinformatie/gemeente/utrecht/,utrecht,POINT (5.074904979512044 52.09104383041898),5.074904979512044,52.09104383041898,,,midwest-west,0,0,0,0,0,0,0,0,0,0,0,0,0,0,,True,municipality::utrecht,Utrecht (Ut),,municipality_polygon
1581,Utrechtse Heuvelrug,tcm:106-353728-1024,4,/regioinformatie/gemeente/utrechtse-heuvelrug/,utrechtse heuvelrug,POINT (5.388161262336084 52.03462612001916),5.388161262336084,52.03462612001916,,,midwest-west,0,0,0,0,0,0,0,0,0,0,0,0,0,0,,True,municipality::utrechtse-heuvelrug,Utrechtse Heuvelrug,,municipality_polygon
0345,Veenendaal,tcm:106-353729-1024,4,/regioinformatie/gemeente/veenendaal/,veenendaal,POINT (5.555621204745611 52.02359702495187),5.555621204745611,52.02359702495187,Veenendaal,Utrecht,midwest-west,27,0,27,0,0,0,0,0,0,0,0,0,1,1,Onbekend | Karper | Roofvis,True,municipality::veenendaal,Veenendaal,Utrecht,municipality_polygon
0620,Vianen,tcm:106-353730-1024,4,/regioinformatie/gemeente/vianen/,vianen,POINT (5.1112783861098485 51.96928023303448),5.1112783861098485,51.96928023303448,,,,0,0,0,0,0,0,0,0,0,0,0,0,0,0,,False,municipality::vianen,Vianen,,municipality_polygon
0352,Wijk bij Duurstede,tcm:106-353731-1024,4,/regioinformatie/gemeente/wijk-bij-duurstede/,wijk bij duurstede,POINT (5.325152315172235 51.98938532457769),5.325152315172235,51.98938532457769,,,midwest-west,0,0,0,0,0,0,0,0,0,0,0,0,0,0,,True,municipality::wijk-bij-duurstede,Wijk bij Duurstede,,municipality_polygon
0632,Woerden,tcm:106-353732-1024,4,/regioinformatie/gemeente/woerden/,woerden,POINT (4.898938204805639 52.10690081697523),4.898938204805639,52.10690081697523,,,midwest-west,0,0,0,0,0,0,0,0,0,0,0,0,0,0,,True,municipality::woerden,Woerden,,municipality_polygon
0351,Woudenberg,tcm:106-353733-1024,4,/regioinformatie/gemeente/woudenberg/,woudenberg,POINT (5.426489773937829 52.08113035239303),5.426489773937829,52.08113035239303,,,midwest-west,0,0,0,0,0,0,0,0,0,0,0,0,0,0,,True,municipality::woudenberg,Woudenberg,,municipality_polygon
0355,Zeist,tcm:106-353734-1024,4,/regioinformatie/gemeente/zeist/,zeist,POINT (5.255089368007015 52.102111880807946),5.255089368007015,52.102111880807946,,,midwest-west,0,0,0,0,0,0,0,0,0,0,0,0,0,0,,True,municipality::zeist,Zeist,,municipality_polygon
0654,Borsele,tcm:106-353736-1024,4,/regioinformatie/gemeente/borsele/,borsele,POINT (3.825106685815168 51.43199905590541),3.825106685815168,51.43199905590541,,,,0,0,0,0,0,0,0,0,0,0,0,0,0,0,,False,municipality::borsele,Borsele,,municipality_polygon
0664,Goes,tcm:106-353737-1024,4,/regioinformatie/gemeente/goes/,goes,POINT (3.8444252751413854 51.517078834233786),3.8444252751413854,51.517078834233786,,,,0,0,0,0,0,0,0,0,0,0,0,0,0,0,,False,municipality::goes,Goes,,municipality_polygon
0677,Hulst,tcm:106-353738-1024,4,/regioinformatie/gemeente/hulst/,hulst,POINT (4.064983847438367 51.33329733429114),4.064983847438367,51.33329733429114,,,,0,0,0,0,0,0,0,0,0,0,0,0,0,0,,False,municipality::hulst,Hulst,,municipality_polygon
0678,Kapelle,tcm:106-353739-1024,4,/regioinformatie/gemeente/kapelle/,kapelle,POINT (3.9705696660898084 51.494860044545575),3.9705696660898084,51.494860044545575,,,,0,0,0,0,0,0,0,0,0,0,0,0,0,0,,False,municipality::kapelle,Kapelle,,municipality_polygon
0687,Middelburg,tcm:106-353740-1024,4,/regioinformatie/gemeente/middelburg/,middelburg,POINT (3.6509185096711962 51.50324243155244),3.6509185096711962,51.50324243155244,,,,0,0,0,0,0,0,0,0,0,0,0,0,0,0,,False,municipality::middelburg,Middelburg,,municipality_polygon
1695,Noord-Beveland,tcm:106-353741-1024,4,/regioinformatie/gemeente/noord-beveland/,noord beveland,POINT (3.7965940257639526 51.573167234985426),3.7965940257639526,51.573167234985426,,,,0,0,0,0,0,0,0,0,0,0,0,0,0,0,,False,municipality::noord-beveland,Noord-Beveland,,municipality_polygon
0703,Reimerswaal,tcm:106-353742-1024,4,/regioinformatie/gemeente/reimerswaal/,reimerswaal,POINT (4.120975643648437 51.44144612306553),4.120975643648437,51.44144612306553,,,,0,0,0,0,0,0,0,0,0,0,0,0,0,0,,False,municipality::reimerswaal,Reimerswaal,,municipality_polygon
1676,Schouwen-Duiveland,tcm:106-353743-1024,4,/regioinformatie/gemeente/schouwen-duiveland/,schouwen duiveland,POINT (3.8828723334901474 51.68215885118496),3.8828723334901474,51.68215885118496,,,,0,0,0,0,0,0,0,0,0,0,0,0,0,0,,False,municipality::schouwen-duiveland,Schouwen-Duiveland,,municipality_polygon
1714,Sluis,tcm:106-353744-1024,4,/regioinformatie/gemeente/sluis/,sluis,POINT (3.5231663335439936 51.33349669678595),3.5231663335439936,51.33349669678595,,,,0,0,0,0,0,0,0,0,0,0,0,0,0,0,,False,municipality::sluis,Sluis,,municipality_polygon
0715,Terneuzen,tcm:106-353745-1024,4,/regioinformatie/gemeente/terneuzen/,terneuzen,POINT (3.836286108604808 51.30163382653907),3.836286108604808,51.30163382653907,,,,0,0,0,0,0,0,0,0,0,0,0,0,0,0,,False,municipality::terneuzen,Terneuzen,,municipality_polygon
0716,Tholen,tcm:106-353746-1024,4,/regioinformatie/gemeente/tholen/,tholen,POINT (4.106430672652292 51.570379514605065),4.106430672652292,51.570379514605065,Tholen,Zeeland,,7,0,7,0,0,0,0,0,0,0,0,0,1,2,Onbekend,False,municipality::tholen,Tholen,Zeeland,municipality_polygon
0717,Veere,tcm:106-353747-1024,4,/regioinformatie/gemeente/veere/,veere,POINT (3.584781594513843 51.562735300360465),3.584781594513843,51.562735300360465,,,,0,0,0,0,0,0,0,0,0,0,0,0,0,0,,False,municipality::veere,Veere,,municipality_polygon
0718,Vlissingen,tcm:106-353748-1024,4,/regioinformatie/gemeente/vlissingen/,vlissingen,POINT (3.4811471120786974 51.46536343702813),3.4811471120786974,51.46536343702813,Vlissingen,Zeeland,,21,0,21,0,0,0,0,0,0,0,0,0,1,2,Onbekend,False,municipality::vlissingen,Vlissingen,Zeeland,municipality_polygon
0482,Alblasserdam,tcm:106-353750-1024,4,/regioinformatie/gemeente/alblasserdam/,alblasserdam,POINT (4.665767590375804 51.86463210444922),4.665767590375804,51.86463210444922,Alblasserdam,Zuid-Holland,,2,0,2,0,0,0,0,0,0,0,0,0,0,1,Roofvis | Onbekend,False,municipality::alblasserdam,Alblasserdam,Zuid-Holland,municipality_polygon
0613,Albrandswaard,tcm:106-353751-1024,4,/regioinformatie/gemeente/albrandswaard/,albrandswaard,POINT (4.435918942828561 51.85211375993547),4.435918942828561,51.85211375993547,,,,0,0,0,0,0,0,0,0,0,0,0,0,0,0,,False,municipality::albrandswaard,Albrandswaard,,municipality_polygon
0484,Alphen aan den Rijn,tcm:106-353752-1024,4,/regioinformatie/gemeente/alphen-aan-den-rijn/,alphen aan den rijn,POINT (4.640836025382903 52.11326860523159),4.640836025382903,52.11326860523159,Alphen aan den Rijn,Zuid-Holland,midwest-west,37,0,0,0,0,0,0,0,0,0,0,0,1,1,Onbekend | Roofvis,True,municipality::alphen-aan-den-rijn,Alphen aan den Rijn,Zuid-Holland,municipality_polygon
0489,Barendrecht,tcm:106-353753-1024,4,/regioinformatie/gemeente/barendrecht/,barendrecht,POINT (4.525011967196108 51.85116572365807),4.525011967196108,51.85116572365807,,,,0,0,0,0,0,0,0,0,0,0,0,0,0,0,,False,municipality::barendrecht,Barendrecht,,municipality_polygon
0585,Binnenmaas,tcm:106-353756-1024,4,/regioinformatie/gemeente/binnenmaas/,binnenmaas,POINT (4.5351728655016315 51.7950961155343),4.5351728655016315,51.7950961155343,,,,0,0,0,0,0,0,0,0,0,0,0,0,0,0,,False,municipality::binnenmaas,Binnenmaas,,municipality_polygon
1901,Bodegraven-Reeuwijk,tcm:106-353757-1024,4,/regioinformatie/gemeente/bodegraven-reeuwijk/,bodegraven reeuwijk,POINT (4.766064436912656 52.065468870282345),4.766064436912656,52.065468870282345,,,midwest-west,0,0,0,0,0,0,0,0,0,0,0,0,0,0,,True,municipality::bodegraven-reeuwijk,Bodegraven-Reeuwijk,,municipality_polygon
0501,Brielle,tcm:106-353759-1024,4,/regioinformatie/gemeente/brielle/,brielle,POINT (4.184369054189154 51.88879104464333),4.184369054189154,51.88879104464333,,,,0,0,0,0,0,0,0,0,0,0,0,0,0,0,,False,municipality::brielle,Brielle,,municipality_polygon
0502,Capelle aan den IJssel,tcm:106-353760-1024,4,/regioinformatie/gemeente/capelle-aan-den-ijssel/,capelle aan den ijssel,POINT (4.579984714422271 51.93491354176401),4.579984714422271,51.93491354176401,,,,0,0,0,0,0,0,0,0,0,0,0,0,0,0,,False,municipality::capelle-aan-den-ijssel,Capelle aan den IJssel,,municipality_polygon
0611,Cromstrijen,tcm:106-353761-1024,4,/regioinformatie/gemeente/cromstrijen/,cromstrijen,POINT (4.454810344041234 51.736237863360095),4.454810344041234,51.736237863360095,,,,0,0,0,0,0,0,0,0,0,0,0,0,0,0,,False,municipality::cromstrijen,Cromstrijen,,municipality_polygon
0503,Delft,tcm:106-353762-1024,4,/regioinformatie/gemeente/delft/,delft,POINT (4.363383963963582 51.99842943187433),4.363383963963582,51.99842943187433,,,,0,0,0,0,0,0,0,0,0,0,0,0,0,0,,False,municipality::delft,Delft,,municipality_polygon
0505,Dordrecht,tcm:106-353764-1024,4,/regioinformatie/gemeente/dordrecht/,dordrecht,POINT (4.708561053913789 51.78133965963716),4.708561053913789,51.78133965963716,,,,0,0,0,0,0,0,0,0,0,0,0,0,0,0,,False,municipality::dordrecht,Dordrecht,,municipality_polygon
0689,Giessenlanden,tcm:106-353765-1024,4,/regioinformatie/gemeente/giessenlanden/,giessenlanden,POINT (4.930206713027281 51.87270916525943),4.930206713027281,51.87270916525943,,,,0,0,0,0,0,0,0,0,0,0,0,0,0,0,,False,municipality::giessenlanden,Giessenlanden,,municipality_polygon
1924,Goeree-Overflakkee,tcm:106-353766-1024,4,/regioinformatie/gemeente/goeree-overflakkee/,goeree overflakkee,POINT (4.099960317954548 51.75235025087373),4.099960317954548,51.75235025087373,,,,0,0,0,0,0,0,0,0,0,0,0,0,0,0,,False,municipality::goeree-overflakkee,Goeree-Overflakkee,,municipality_polygon
0512,Gorinchem,tcm:106-353767-1024,4,/regioinformatie/gemeente/gorinchem/,gorinchem,POINT (4.976936122637805 51.83853092515666),4.976936122637805,51.83853092515666,,,,0,0,0,0,0,0,0,0,0,0,0,0,0,0,,False,municipality::gorinchem,Gorinchem,,municipality_polygon
0513,Gouda,tcm:106-353768-1024,4,/regioinformatie/gemeente/gouda/,gouda,POINT (4.70631225301377 52.015315803472134),4.70631225301377,52.015315803472134,,,,0,0,0,0,0,0,0,0,0,0,0,0,0,0,,False,municipality::gouda,Gouda,,municipality_polygon
0523,Hardinxveld-Giessendam,tcm:106-353769-1024,4,/regioinformatie/gemeente/hardinxveld-giessendam/,hardinxveld giessendam,POINT (4.852556933885396 51.83262514289576),4.852556933885396,51.83262514289576,,,,0,0,0,0,0,0,0,0,0,0,0,0,0,0,,False,municipality::hardinxveld-giessendam,Hardinxveld-Giessendam,,municipality_polygon
0530,Hellevoetsluis,tcm:106-353770-1024,4,/regioinformatie/gemeente/hellevoetsluis/,hellevoetsluis,POINT (4.125843573421882 51.83966111617259),4.125843573421882,51.83966111617259,,,,0,0,0,0,0,0,0,0,0,0,0,0,0,0,,False,municipality::hellevoetsluis,Hellevoetsluis,,municipality_polygon
0531,Hendrik-Ido-Ambacht,tcm:106-353771-1024,4,/regioinformatie/gemeente/hendrik-ido-ambacht/,hendrik ido ambacht,POINT (4.639005875644972 51.84175909317067),4.639005875644972,51.84175909317067,,,,0,0,0,0,0,0,0,0,0,0,0,0,0,0,,False,municipality::hendrik-ido-ambacht,Hendrik-Ido-Ambacht,,municipality_polygon
0534,Hillegom,tcm:106-353772-1024,4,/regioinformatie/gemeente/hillegom/,hillegom,POINT (4.576932573601114 52.296959010673575),4.576932573601114,52.296959010673575,,,midwest-west,0,0,0,0,0,0,0,0,0,0,0,0,0,0,,True,municipality::hillegom,Hillegom,,municipality_polygon
1884,Kaag en Braassem,tcm:106-353773-1024,4,/regioinformatie/gemeente/kaag-en-braassem/,kaag en braassem,POINT (4.6293067809621204 52.1925522040386),4.6293067809621204,52.1925522040386,Kaag en Braassem,Zuid-Holland,midwest-west,10,0,0,0,0,0,0,0,0,0,0,0,1,1,Onbekend | Roofvis,True,municipality::kaag-en-braassem,Kaag en Braassem,Zuid-Holland,municipality_polygon
0537,Katwijk,tcm:106-353774-1024,4,/regioinformatie/gemeente/katwijk/,katwijk,POINT (4.416317967641744 52.19222015577544),4.416317967641744,52.19222015577544,,,midwest-west,0,0,0,0,0,0,0,0,0,0,0,0,0,0,,True,municipality::katwijk,Katwijk,,municipality_polygon
0588,Korendijk,tcm:106-353775-1024,4,/regioinformatie/gemeente/korendijk/,korendijk,POINT (4.32629685289615 51.766654421445175),4.32629685289615,51.766654421445175,,,,0,0,0,0,0,0,0,0,0,0,0,0,0,0,,False,municipality::korendijk,Korendijk,,municipality_polygon
0542,Krimpen aan den IJssel,tcm:106-353776-1024,4,/regioinformatie/gemeente/krimpen-aan-den-ijssel/,krimpen aan den ijssel,POINT (4.6019282049461285 51.914744122699936),4.6019282049461285,51.914744122699936,,,,0,0,0,0,0,0,0,0,0,0,0,0,0,0,,False,municipality::krimpen-aan-den-ijssel,Krimpen aan den IJssel,,municipality_polygon
1931,Krimpenerwaard,tcm:106-401748-1024,4,/regioinformatie/gemeente/krimpenerwaard/,krimpenerwaard,POINT (4.737255899162406 51.952541798248944),4.737255899162406,51.952541798248944,Krimpenerwaard,Zuid-Holland,,17,0,0,0,0,0,0,0,0,0,0,0,0,2,Onbekend | Roofvis,False,municipality::krimpenerwaard,Krimpenerwaard,Zuid-Holland,municipality_polygon
1621,Lansingerland,tcm:106-353777-1024,4,/regioinformatie/gemeente/lansingerland/,lansingerland,POINT (4.506052089758833 52.00401014583249),4.506052089758833,52.00401014583249,,,,0,0,0,0,0,0,0,0,0,0,0,0,0,0,,False,municipality::lansingerland,Lansingerland,,municipality_polygon
0545,Leerdam,tcm:106-353778-1024,4,/regioinformatie/gemeente/leerdam/,leerdam,POINT (5.085974528417808 51.9029103175284),5.085974528417808,51.9029103175284,,,,0,0,0,0,0,0,0,0,0,0,0,0,0,0,,False,municipality::leerdam,Leerdam,,municipality_polygon
0546,Leiden,tcm:106-353779-1024,4,/regioinformatie/gemeente/leiden/,leiden,POINT (4.485274420780363 52.15496676997786),4.485274420780363,52.15496676997786,,,midwest-west,0,0,0,0,0,0,0,0,0,0,0,0,0,0,,True,municipality::leiden,Leiden,,municipality_polygon
0547,Leiderdorp,tcm:106-353780-1024,4,/regioinformatie/gemeente/leiderdorp/,leiderdorp,POINT (4.542110331274957 52.156745018918706),4.542110331274957,52.156745018918706,,,midwest-west,0,0,0,0,0,0,0,0,0,0,0,0,0,0,,True,municipality::leiderdorp,Leiderdorp,,municipality_polygon
1916,Leidschendam-Voorburg,tcm:106-353781-1024,4,/regioinformatie/gemeente/leidschendam-voorburg/,leidschendam voorburg,POINT (4.422218224725633 52.09028426980996),4.422218224725633,52.09028426980996,,,,0,0,0,0,0,0,0,0,0,0,0,0,0,0,,False,municipality::leidschendam-voorburg,Leidschendam-Voorburg,,municipality_polygon
0553,Lisse,tcm:106-353782-1024,4,/regioinformatie/gemeente/lisse/,lisse,POINT (4.545665192478835 52.25568039106613),4.545665192478835,52.25568039106613,Lisse,Zuid-Holland,midwest-west,3,0,3,0,0,0,0,0,0,0,0,0,1,1,Onbekend,True,municipality::lisse,Lisse,Zuid-Holland,municipality_polygon
0556,Maassluis,tcm:106-353783-1024,4,/regioinformatie/gemeente/maassluis/,maassluis,POINT (4.248919299991681 51.92502273665664),4.248919299991681,51.92502273665664,,,,0,0,0,0,0,0,0,0,0,0,0,0,0,0,,False,municipality::maassluis,Maassluis,,municipality_polygon
1842,Midden-Delfland,tcm:106-353784-1024,4,/regioinformatie/gemeente/midden-delfland/,midden delfland,POINT (4.306136006559407 51.9648408490207),4.306136006559407,51.9648408490207,,,,0,0,0,0,0,0,0,0,0,0,0,0,0,0,,False,municipality::midden-delfland,Midden-Delfland,,municipality_polygon
1927,Molenwaard,tcm:106-353785-1024,4,/regioinformatie/gemeente/molenwaard/,molenwaard,POINT (4.801519261801593 51.89081873935491),4.801519261801593,51.89081873935491,,,,0,0,0,0,0,0,0,0,0,0,0,0,0,0,,False,municipality::molenwaard,Molenwaard,,municipality_polygon
